ms_today,input_voltage,temp_mos_max,temp_mos_1,temp_mos_2,temp_mos_3,temp_motor,current_motor,current_in,d_axis_current,q_axis_current,erpm,duty_cycle,amp_hours_used,amp_hours_charged,watt_hours_used,watt_hours_charged,tachometer,tachometer_abs,encoder_position,fault_code,vesc_id,d_axis_voltage,q_axis_voltage,ms_today_setup,amp_hours_setup,amp_hours_charged_setup,watt_hours_setup,watt_hours_charged_setup,battery_level,battery_wh_tot,current_in_setup,current_motor_setup,speed_meters_per_sec,tacho_meters,tacho_abs_meters,num_vescs,ms_today_imu,roll,pitch,yaw,accX,accY,accZ,gyroX,gyroY,gyroZ,gnss_posTime,gnss_lat,gnss_lon,gnss_alt,gnss_gVel,gnss_vVel,gnss_hAcc,gnss_vAcc
44703169,43.8,25.4,0,0,0,-91.7,0,0,0,0,-3,0,0.0058,0,0.2612,0,-39216,40322,192.023,0,24,0.003,0,-1,0,0,0,0,0,0,0,0,0,0,0,0,-1,0,0,0,0,0,0,0,0,0,-1,0,0,0,0,0,0,0
44703233,45.3,25.3,0,0,0,-92.9,0,0,0,0,-3,0,0.0058,0,0.2612,0,-39216,40322,188.616,0,24,0.003,0,44703170,0.0058,0,0.2612,0,2.419,136.987,0,0,0,-81.156,83.444,1,-1,0,0,0,0,0,0,0,0,0,-1,0,0,0,0,0,0,0
44703288,44.7,25.4,0,0,0,-92.2,0,0,0,0,-2,0,0.0058,0,0.2612,0,-39216,40322,187.936,0,24,0.003,0,44703234,0.0058,0,0.2612,0,2.419,136.987,0,0,0,-81.156,83.444,1,-1,0,0,0,0,0,0,0,0,0,-1,0,0,0,0,0,0,0
44703349,44.9,25.2,0,0,0,-91.1,0,0,0,0,-2,0,0.0058,0,0.2612,0,-39216,40322,186.875,0,24,0.002,0,44703288,0.0058,0,0.2612,0,2.41,136.449,0,0,0,-81.156,83.444,1,-1,0,0,0,0,0,0,0,0,0,-1,0,0,0,0,0,0,0
44703411,44.2,25.2,0,0,0,-88.5,0,0,0,0,-3,0,0.0058,0,0.2612,0,-39216,40322,185.49,0,24,0.002,0,44703349,0.0058,0,0.2612,0,2.413,136.641,0,0,0,-81.156,83.444,1,-1,0,0,0,0,0,0,0,0,0,-1,0,0,0,0,0,0,0
44703471,45.1,25.7,0,0,0,-92.2,0,0,0,0,-1,0,0.0058,0,0.2612,0,-39216,40322,185.417,0,24,0.003,0,44703411,0.0058,0,0.2612,0,2.475,140.142,0,0,0,-81.156,83.444,1,-1,0,0,0,0,0,0,0,0,0,-1,0,0,0,0,0,0,0
44703532,44.3,25.2,0,0,0,-91.2,0,0,0,0,0,0,0.0058,0,0.2612,0,-39216,40322,185.8,0,24,0.003,0,44703472,0.0058,0,0.2612,0,2.428,137.487,0,0,0,-81.156,83.444,1,-1,0,0,0,0,0,0,0,0,0,-1,0,0,0,0,0,0,0
44703591,45.4,25.5,0,0,0,-91.4,0,0,0,0,-2,0,0.0058,0,0.2612,0,-39216,40322,184.495,0,24,0.002,0,44703532,0.0058,0,0.2612,0,2.485,140.68,0,0,0,-81.156,83.444,1,-1,0,0,0,0,0,0,0,0,0,-1,0,0,0,0,0,0,0
44703671,43.9,25.4,0,0,0,-93.4,0,0,0,0,-2,0,0.0058,0,0.2612,0,-39216,40322,183.299,0,24,0.003,0,44703591,0.0058,0,0.2612,0,2.411,136.487,0,0,0,-81.156,83.444,1,-1,0,0,0,0,0,0,0,0,0,-1,0,0,0,0,0,0,0
44703747,43.9,25.6,0,0,0,-94.6,0,0,0,0,-2,0,0.0058,0,0.2612,0,-39216,40322,182.865,0,24,0.002,0,44703671,0.0058,0,0.2612,0,2.444,138.372,0,0,0,-81.156,83.444,1,-1,0,0,0,0,0,0,0,0,0,-1,0,0,0,0,0,0,0
44703807,45.4,25.3,0,0,0,-93.2,0,0,0,0,-1,0,0.0058,0,0.2612,0,-39216,40322,182.804,0,24,0.002,0,44703747,0.0058,0,0.2612,0,2.489,140.949,0,0,0,-81.156,83.444,1,-1,0,0,0,0,0,0,0,0,0,-1,0,0,0,0,0,0,0
44703852,44.2,25.5,0,0,0,-93.8,0,0,0,0,-2,0,0.0058,0,0.2612,0,-39216,40322,182.025,0,24,0.002,0,44703808,0.0058,0,0.2612,0,2.415,136.718,0,0,0,-81.156,83.444,1,-1,0,0,0,0,0,0,0,0,0,-1,0,0,0,0,0,0,0
44705255,44.6,25.7,0,0,0,-95.5,0,0,0,0,-2,0,0.0058,0,0.2612,0,-39216,40322,181.254,0,24,0.003,0,44703853,0.0058,0,0.2612,0,2.466,139.603,0,0,0,-81.156,83.444,1,-1,0,0,0,0,0,0,0,0,0,-1,0,0,0,0,0,0,0
44705526,44.3,25.4,0,0,0,-95.3,0,0,0,0,0,0,0.0058,0,0.2612,0,-39216,40396,180.115,0,24,0.002,0,44705255,0.0058,0,0.2612,0,2.446,138.487,0,0,0,-81.156,83.444,1,-1,0,0,0,0,0,0,0,0,0,-1,0,0,0,0,0,0,0
44705565,45.1,25.1,0,0,0,-94.5,0,0,0,0,0,0,0.0058,0,0.2612,0,-39216,40402,180.127,0,24,0.002,0,44705526,0.0058,0,0.2612,0,2.454,138.949,0,0,0,-81.156,83.597,1,-1,0,0,0,0,0,0,0,0,0,-1,0,0,0,0,0,0,0
44705602,45.1,25.4,0,0,0,-93.8,0,0,0,0,0,0,0.0058,0,0.2612,0,-39217,40403,179.826,0,24,0.002,0,44705565,0.0058,0,0.2612,0,2.434,137.795,0,0,0,-81.156,83.61,1,-1,0,0,0,0,0,0,0,0,0,-1,0,0,0,0,0,0,0
44705657,45.6,25.3,0,0,0,-94.8,0,0,0,0,0,0,0.0058,0,0.2612,0,-39217,40411,179.866,0,24,0.002,0,44705602,0.0058,0,0.2612,0,2.417,136.833,0,0,0,-81.158,83.612,1,-1,0,0,0,0,0,0,0,0,0,-1,0,0,0,0,0,0,0
44705692,44.8,25.4,0,0,0,-96.4,0,0,0,0,-1,0,0.0058,0,0.2612,0,-39217,40411,179.131,0,24,0.003,0,44705657,0.0058,0,0.2612,0,2.446,138.487,0,0,0,-81.158,83.629,1,-1,0,0,0,0,0,0,0,0,0,-1,0,0,0,0,0,0,0
44705731,44.2,25.5,0,0,0,-96.6,0,0,0,0,-1,0,0.0058,0,0.2612,0,-39217,40411,178.631,0,24,0.002,0,44705692,0.0058,0,0.2612,0,2.404,136.102,0,0,0,-81.158,83.629,1,-1,0,0,0,0,0,0,0,0,0,-1,0,0,0,0,0,0,0
44705783,45.4,25.1,0,0,0,-95.1,0,0,0,0,-1,0,0.0058,0,0.2612,0,-39217,40411,178.486,0,24,0.003,0,44705731,0.0058,0,0.2612,0,2.438,138.026,0,0,0,-81.158,83.629,1,-1,0,0,0,0,0,0,0,0,0,-1,0,0,0,0,0,0,0
44705825,44.4,25.3,0,0,0,-96.2,0,0,0,0,1,0,0.0058,0,0.2612,0,-39217,40411,179.513,0,24,0.003,0,44705783,0.0058,0,0.2612,0,2.444,138.41,0,0,0,-81.158,83.629,1,-1,0,0,0,0,0,0,0,0,0,-1,0,0,0,0,0,0,0
44705891,44.8,25.4,0,0,0,-96.7,0,0,0,0,0,0,0.0058,0,0.2612,0,-39217,40411,179.107,0,24,0.003,0,44705826,0.0058,0,0.2612,0,2.434,137.795,0,0,0,-81.158,83.629,1,-1,0,0,0,0,0,0,0,0,0,-1,0,0,0,0,0,0,0
44705964,45.3,25.5,0,0,0,-97.2,0,0,0,0,-1,0,0.0058,0,0.2612,0,-39217,40411,177.73,0,24,0.002,0,44705892,0.0058,0,0.2612,0,2.424,137.256,0,0,0,-81.158,83.629,1,-1,0,0,0,0,0,0,0,0,0,-1,0,0,0,0,0,0,0
44706035,44.8,25.1,0,0,0,-94.2,0,0,0,0,0,0,0.0058,0,0.2612,0,-39217,40411,177.813,0,24,0.002,0,44705964,0.0058,0,0.2612,0,2.441,138.218,0,0,0,-81.158,83.629,1,-1,0,0,0,0,0,0,0,0,0,-1,0,0,0,0,0,0,0
44706103,44.3,25.3,0,0,0,-94.1,0,0,0,0,-1,0,0.0058,0,0.2612,0,-39217,40411,177.211,0,24,0.002,0,44706035,0.0058,0,0.2612,0,2.411,136.487,0,0,0,-81.158,83.629,1,-1,0,0,0,0,0,0,0,0,0,-1,0,0,0,0,0,0,0
44706177,44.8,25.3,0,0,0,-93.5,0,0,0,0,0,0,0.0058,0,0.2612,0,-39217,40411,177.02,0,24,0.003,0,44706104,0.0058,0,0.2612,0,2.466,139.603,0,0,0,-81.158,83.629,1,-1,0,0,0,0,0,0,0,0,0,-1,0,0,0,0,0,0,0
44706269,44.8,25.3,0,0,0,-91.9,0,0,0,0,0,0,0.0058,0,0.2612,0,-39217,40411,177.48,0,24,0.003,0,44706177,0.0058,0,0.2612,0,2.407,136.295,0,0,0,-81.158,83.629,1,-1,0,0,0,0,0,0,0,0,0,-1,0,0,0,0,0,0,0
44706341,45.3,25.5,0,0,0,-94,0,0,0,0,0,0,0.0058,0,0.2612,0,-39217,40411,177.918,0,24,0.003,0,44706270,0.0058,0,0.2612,0,2.406,136.256,0,0,0,-81.158,83.629,1,-1,0,0,0,0,0,0,0,0,0,-1,0,0,0,0,0,0,0
44706385,44.9,25.3,0,0,0,-94.3,0,0,0,0,1,0,0.0058,0,0.2612,0,-39217,40411,178.274,0,24,0.002,0,44706341,0.0058,0,0.2612,0,2.413,136.603,0,0,0,-81.158,83.629,1,-1,0,0,0,0,0,0,0,0,0,-1,0,0,0,0,0,0,0
44706473,45.3,25.4,0,0,0,-92.3,0,0,0,0,-1,0,0.0058,0,0.2612,0,-39217,40411,177.21,0,24,0.003,0,44706385,0.0058,0,0.2612,0,2.408,136.333,0,0,0,-81.158,83.629,1,-1,0,0,0,0,0,0,0,0,0,-1,0,0,0,0,0,0,0
44706527,44.8,25.3,0,0,0,-93,0,0,0,0,-1,0,0.0058,0,0.2612,0,-39217,40411,177.251,0,24,0.002,0,44706473,0.0058,0,0.2612,0,2.411,136.487,0,0,0,-81.158,83.629,1,-1,0,0,0,0,0,0,0,0,0,-1,0,0,0,0,0,0,0
44706608,45.6,25.3,0,0,0,-92,0,0,0,0,-1,0,0.0058,0,0.2612,0,-39217,40411,176.9,0,24,0.003,0,44706528,0.0058,0,0.2612,0,2.41,136.449,0,0,0,-81.158,83.629,1,-1,0,0,0,0,0,0,0,0,0,-1,0,0,0,0,0,0,0
44707168,44.2,25.3,0,0,0,-92.6,0,0,0,0,0,0,0.0058,0,0.2612,0,-39217,40411,177.757,0,24,0.002,0,44706608,0.0058,0,0.2612,0,2.429,137.526,0,0,0,-81.158,83.629,1,-1,0,0,0,0,0,0,0,0,0,-1,0,0,0,0,0,0,0
44707226,45.3,25.5,0,0,0,-94,0,0,0,0,0,0,0.0058,0,0.2612,0,-39217,40411,177.47,0,24,0.003,0,44707168,0.0058,0,0.2612,0,2.473,140.026,0,0,0,-81.158,83.629,1,-1,0,0,0,0,0,0,0,0,0,-1,0,0,0,0,0,0,0
44707263,44,25.2,0,0,0,-92.2,0,0,0,0,0,0,0.0058,0,0.2612,0,-39217,40411,177.786,0,24,0.003,0,44707226,0.0058,0,0.2612,0,2.441,138.218,0,0,0,-81.158,83.629,1,-1,0,0,0,0,0,0,0,0,0,-1,0,0,0,0,0,0,0
44707318,44.8,25.4,0,0,0,-93,0,0,0,0,0,0,0.0058,0,0.2612,0,-39217,40411,177.786,0,24,0.002,0,44707263,0.0058,0,0.2612,0,2.458,139.18,0,0,0,-81.158,83.629,1,-1,0,0,0,0,0,0,0,0,0,-1,0,0,0,0,0,0,0
44707354,44.3,25.1,0,0,0,-93.2,0,0,0,0,0,0,0.0058,0,0.2612,0,-39217,40411,177.904,0,24,0.003,0,44707319,0.0058,0,0.2612,0,2.423,137.218,0,0,0,-81.158,83.629,1,-1,0,0,0,0,0,0,0,0,0,-1,0,0,0,0,0,0,0
44707415,44.6,25.4,0,0,0,-91.4,0,0,0,0,0,0,0.0058,0,0.2612,0,-39217,40411,178.449,0,24,0.003,0,44707354,0.0058,0,0.2612,0,2.45,138.718,0,0,0,-81.158,83.629,1,-1,0,0,0,0,0,0,0,0,0,-1,0,0,0,0,0,0,0
44707448,43.8,25.4,0,0,0,-93.5,0,0,0,0,1,0,0.0058,0,0.2612,0,-39217,40411,179.189,0,24,0.003,0,44707415,0.0058,0,0.2612,0,2.406,136.256,0,0,0,-81.158,83.629,1,-1,0,0,0,0,0,0,0,0,0,-1,0,0,0,0,0,0,0
44707480,44.3,25.1,0,0,0,-91.6,0,0,0,0,1,0,0.0058,0,0.2612,0,-39217,40411,179.416,0,24,0.002,0,44707448,0.0058,0,0.2612,0,2.47,139.834,0,0,0,-81.158,83.629,1,-1,0,0,0,0,0,0,0,0,0,-1,0,0,0,0,0,0,0
44707537,45.6,25.4,0,0,0,-93.1,0,0,0,0,-1,0,0.0058,0,0.2612,0,-39217,40411,178.187,0,24,0.002,0,44707480,0.0058,0,0.2612,0,2.427,137.41,0,0,0,-81.158,83.629,1,-1,0,0,0,0,0,0,0,0,0,-1,0,0,0,0,0,0,0
44707575,44.2,25.2,0,0,0,-93.8,0,0,0,0,-1,0,0.0058,0,0.2612,0,-39217,40411,177.912,0,24,0.003,0,44707537,0.0058,0,0.2612,0,2.421,137.064,0,0,0,-81.158,83.629,1,-1,0,0,0,0,0,0,0,0,0,-1,0,0,0,0,0,0,0
44707630,45.3,25.3,0,0,0,-93.2,0,0,0,0,-1,0,0.0058,0,0.2612,0,-39217,40411,177.772,0,24,0.003,0,44707576,0.0058,0,0.2612,0,2.474,140.103,0,0,0,-81.158,83.629,1,-1,0,0,0,0,0,0,0,0,0,-1,0,0,0,0,0,0,0
44707667,45.6,25.2,0,0,0,-92,0,0,0,0,1,0,0.0058,0,0.2612,0,-39217,40411,178.952,0,24,0.003,0,44707630,0.0058,0,0.2612,0,2.425,137.295,0,0,0,-81.158,83.629,1,-1,0,0,0,0,0,0,0,0,0,-1,0,0,0,0,0,0,0
44707724,44,25.5,0,0,0,-91.3,0,0,0,0,0,0,0.0058,0,0.2612,0,-39217,40411,178.602,0,24,0.002,0,44707667,0.0058,0,0.2612,0,2.422,137.141,0,0,0,-81.158,83.629,1,-1,0,0,0,0,0,0,0,0,0,-1,0,0,0,0,0,0,0
44707767,44.5,25.4,0,0,0,-94.5,0,0,0,0,-2,0,0.0058,0,0.2612,0,-39217,40411,177.164,0,24,0.002,0,44707724,0.0058,0,0.2612,0,2.461,139.334,0,0,0,-81.158,83.629,1,-1,0,0,0,0,0,0,0,0,0,-1,0,0,0,0,0,0,0
44707817,45.1,25.1,0,0,0,-94.5,0,0,0,0,0,0,0.0058,0,0.2612,0,-39217,40411,177.435,0,24,0.003,0,44707768,0.0058,0,0.2612,0,2.439,138.103,0,0,0,-81.158,83.629,1,-1,0,0,0,0,0,0,0,0,0,-1,0,0,0,0,0,0,0
44707877,44.8,25.6,0,0,0,-96.2,0,0,0,0,0,0,0.0058,0,0.2612,0,-39217,40411,177.517,0,24,0.002,0,44707817,0.0058,0,0.2612,0,2.446,138.487,0,0,0,-81.158,83.629,1,-1,0,0,0,0,0,0,0,0,0,-1,0,0,0,0,0,0,0
44707916,43.9,25.3,0,0,0,-94.1,0,0,0,0,0,0,0.0058,0,0.2612,0,-39217,40411,178.155,0,24,0.002,0,44707877,0.0058,0,0.2612,0,2.415,136.756,0,0,0,-81.158,83.629,1,-1,0,0,0,0,0,0,0,0,0,-1,0,0,0,0,0,0,0
44707970,44.3,25.2,0,0,0,-93.3,0,0,0,0,1,0,0.0058,0,0.2612,0,-39217,40411,178.572,0,24,0.003,0,44707916,0.0058,0,0.2612,0,2.461,139.334,0,0,0,-81.158,83.629,1,-1,0,0,0,0,0,0,0,0,0,-1,0,0,0,0,0,0,0
44708004,44.3,25.1,0,0,0,-91.9,0,0,0,0,0,0,0.0058,0,0.2612,0,-39217,40411,178.344,0,24,0.002,0,44707970,0.0058,0,0.2612,0,2.403,136.064,0,0,0,-81.158,83.629,1,-1,0,0,0,0,0,0,0,0,0,-1,0,0,0,0,0,0,0
44708069,43.8,25.2,0,0,0,-92.9,0,0,0,0,0,0,0.0058,0,0.2612,0,-39217,40411,178.792,0,24,0.002,0,44708004,0.0058,0,0.2612,0,2.478,140.295,0,0,0,-81.158,83.629,1,-1,0,0,0,0,0,0,0,0,0,-1,0,0,0,0,0,0,0
44708129,44.3,25.1,0,0,0,-92.2,0,0,0,0,0,0,0.0058,0,0.2612,0,-39217,40411,179.478,0,24,0.002,0,44708069,0.0058,0,0.2612,0,2.476,140.18,0,0,0,-81.158,83.629,1,-1,0,0,0,0,0,0,0,0,0,-1,0,0,0,0,0,0,0
44708184,43.9,25.4,0,0,0,-91.6,0,0,0,0,0,0,0.0058,0,0.2612,0,-39217,40411,178.844,0,24,0.002,0,44708129,0.0058,0,0.2612,0,2.481,140.449,0,0,0,-81.158,83.629,1,-1,0,0,0,0,0,0,0,0,0,-1,0,0,0,0,0,0,0
44708217,45,25.1,0,0,0,-92.1,0,0,0,0,0,0,0.0058,0,0.2612,0,-39217,40411,178.969,0,24,0.003,0,44708184,0.0058,0,0.2612,0,2.479,140.372,0,0,0,-81.158,83.629,1,-1,0,0,0,0,0,0,0,0,0,-1,0,0,0,0,0,0,0
44708248,45.2,25.3,0,0,0,-91.9,0,0,0,0,0,0,0.0058,0,0.2612,0,-39217,40411,178.917,0,24,0.003,0,44708217,0.0058,0,0.2612,0,2.425,137.333,0,0,0,-81.158,83.629,1,-1,0,0,0,0,0,0,0,0,0,-1,0,0,0,0,0,0,0
44708279,43.9,25.3,0,0,0,-93.2,0,0,0,0,0,0,0.0058,0,0.2612,0,-39217,40411,179.072,0,24,0.003,0,44708248,0.0058,0,0.2612,0,2.404,136.102,0,0,0,-81.158,83.629,1,-1,0,0,0,0,0,0,0,0,0,-1,0,0,0,0,0,0,0
44708308,43.9,25.4,0,0,0,-95.2,0,0,0,0,2,0,0.0058,0,0.2612,0,-39216,40414,180.143,0,24,0.003,0,44708279,0.0058,0,0.2612,0,2.449,138.68,0,0,0,-81.158,83.629,1,-1,0,0,0,0,0,0,0,0,0,-1,0,0,0,0,0,0,0
44708346,45.2,25.2,0,0,0,-93.7,0,0,0,0,0,0,0.0058,0,0.2612,0,-39217,40417,179.555,0,24,0.003,0,44708308,0.0058,0,0.2612,0,2.455,139.026,0,0,0,-81.156,83.635,1,-1,0,0,0,0,0,0,0,0,0,-1,0,0,0,0,0,0,0
44708376,44.8,25,0,0,0,-91.9,0,0,0,0,0,0,0.0058,0,0.2612,0,-39216,40434,180.005,0,24,0.003,0,44708346,0.0058,0,0.2612,0,2.419,136.949,0,0,0,-81.158,83.641,1,-1,0,0,0,0,0,0,0,0,0,-1,0,0,0,0,0,0,0
44708409,45.3,25.4,0,0,0,-92.3,0,0,0,0,0,0,0.0058,0,0.2612,0,-39217,40439,179.535,0,24,0.003,0,44708376,0.0058,0,0.2612,0,2.408,136.372,0,0,0,-81.156,83.676,1,-1,0,0,0,0,0,0,0,0,0,-1,0,0,0,0,0,0,0
44708467,43.9,25.3,0,0,0,-91.3,0,0,0,0,1,0,0.0058,0,0.2612,0,-39216,40442,180.151,0,24,0.002,0,44708409,0.0058,0,0.2612,0,2.437,137.987,0,0,0,-81.158,83.686,1,-1,0,0,0,0,0,0,0,0,0,-1,0,0,0,0,0,0,0
44708497,44.2,25.1,0,0,0,-89.5,0,0,0,0,2,0,0.0058,0,0.2612,0,-39216,40442,181.104,0,24,0.003,0,44708468,0.0058,0,0.2612,0,2.43,137.564,0,0,0,-81.156,83.693,1,-1,0,0,0,0,0,0,0,0,0,-1,0,0,0,0,0,0,0
44708533,44.3,25.4,0,0,0,-89.8,0,0,0,0,1,0,0.0058,0,0.2612,0,-39216,40442,180.903,0,24,0.003,0,44708497,0.0058,0,0.2612,0,2.479,140.372,0,0,0,-81.156,83.693,1,-1,0,0,0,0,0,0,0,0,0,-1,0,0,0,0,0,0,0
44708565,44.6,25.2,0,0,0,-88.7,0,0,0,0,1,0,0.0058,0,0.2612,0,-39216,40442,181.296,0,24,0.003,0,44708534,0.0058,0,0.2612,0,2.413,136.641,0,0,0,-81.156,83.693,1,-1,0,0,0,0,0,0,0,0,0,-1,0,0,0,0,0,0,0
44708591,44.3,25.2,0,0,0,-88.9,0,0,0,0,0,0,0.0058,0,0.2612,0,-39216,40442,181.207,0,24,0.002,0,44708565,0.0058,0,0.2612,0,2.411,136.487,0,0,0,-81.156,83.693,1,-1,0,0,0,0,0,0,0,0,0,-1,0,0,0,0,0,0,0
44708626,44.7,25.1,0,0,0,-89.4,0,0,0,0,0,0,0.0058,0,0.2612,0,-39216,40442,180.467,0,24,0.002,0,44708592,0.0058,0,0.2612,0,2.405,136.179,0,0,0,-81.156,83.693,1,-1,0,0,0,0,0,0,0,0,0,-1,0,0,0,0,0,0,0
44708656,45.5,25.3,0,0,0,-90.9,0,0,0,0,0,0,0.0058,0,0.2612,0,-39216,40442,180.859,0,24,0.003,0,44708626,0.0058,0,0.2612,0,2.411,136.487,0,0,0,-81.156,83.693,1,-1,0,0,0,0,0,0,0,0,0,-1,0,0,0,0,0,0,0
44708690,45.6,25.1,0,0,0,-89.8,0,0,0,0,0,0,0.0058,0,0.2612,0,-39216,40442,180.799,0,24,0.002,0,44708656,0.0058,0,0.2612,0,2.447,138.526,0,0,0,-81.156,83.693,1,-1,0,0,0,0,0,0,0,0,0,-1,0,0,0,0,0,0,0
44708762,45.2,25.3,0,0,0,-90.4,0,0,0,0,0,0,0.0058,0,0.2612,0,-39216,40442,180.187,0,24,0.003,0,44708690,0.0058,0,0.2612,0,2.425,137.295,0,0,0,-81.156,83.693,1,-1,0,0,0,0,0,0,0,0,0,-1,0,0,0,0,0,0,0
44708813,45.4,25.2,0,0,0,-91.8,0,0,0,0,0,0,0.0058,0,0.2612,0,-39216,40466,180.29,0,24,0.003,0,44708763,0.0058,0,0.2612,0,2.439,138.103,0,0,0,-81.156,83.693,1,-1,0,0,0,0,0,0,0,0,0,-1,0,0,0,0,0,0,0
44708841,44.3,25,0,0,0,-91.8,0,0,0,0,0,0,0.0058,0,0.2612,0,-39216,40466,180.3,0,24,0.002,0,44708813,0.0058,0,0.2612,0,2.422,137.141,0,0,0,-81.156,83.742,1,-1,0,0,0,0,0,0,0,0,0,-1,0,0,0,0,0,0,0
44708874,44.8,25.3,0,0,0,-92.6,0,0,0,0,0,0,0.0058,0,0.2612,0,-39216,40466,180.573,0,24,0.003,0,44708841,0.0058,0,0.2612,0,2.428,137.487,0,0,0,-81.156,83.742,1,-1,0,0,0,0,0,0,0,0,0,-1,0,0,0,0,0,0,0
44708906,43.9,25.1,0,0,0,-92.6,0,0,0,0,0,0,0.0058,0,0.2612,0,-39216,40466,180.41,0,24,0.003,0,44708875,0.0058,0,0.2612,0,2.408,136.372,0,0,0,-81.156,83.742,1,-1,0,0,0,0,0,0,0,0,0,-1,0,0,0,0,0,0,0
44708938,45.4,25,0,0,0,-93.1,0,0,0,0,0,0,0.0058,0,0.2612,0,-39216,40466,180.717,0,24,0.003,0,44708907,0.0058,0,0.2612,0,2.46,139.295,0,0,0,-81.156,83.742,1,-1,0,0,0,0,0,0,0,0,0,-1,0,0,0,0,0,0,0
44708981,45.4,25.4,0,0,0,-93.3,0,0,0,0,0,0,0.0058,0,0.2612,0,-39216,40466,180.419,0,24,0.003,0,44708938,0.0058,0,0.2612,0,2.457,139.141,0,0,0,-81.156,83.742,1,-1,0,0,0,0,0,0,0,0,0,-1,0,0,0,0,0,0,0
44709015,43.8,25.1,0,0,0,-91.5,0,0,0,0,0,0,0.0058,0,0.2612,0,-39216,40466,180.325,0,24,0.002,0,44708981,0.0058,0,0.2612,0,2.423,137.218,0,0,0,-81.156,83.742,1,-1,0,0,0,0,0,0,0,0,0,-1,0,0,0,0,0,0,0
44709057,45.5,25.4,0,0,0,-92.9,0,0,0,0,0,0,0.0058,0,0.2612,0,-39216,40472,180.332,0,24,0.003,0,44709015,0.0058,0,0.2612,0,2.446,138.487,0,0,0,-81.156,83.742,1,-1,0,0,0,0,0,0,0,0,0,-1,0,0,0,0,0,0,0
44709087,43.9,25.3,0,0,0,-92.7,0,0,0,0,0,0,0.0058,0,0.2612,0,-39216,40472,180.42,0,24,0.002,0,44709058,0.0058,0,0.2612,0,2.417,136.833,0,0,0,-81.156,83.755,1,-1,0,0,0,0,0,0,0,0,0,-1,0,0,0,0,0,0,0
44709122,44.8,25.5,0,0,0,-93.2,0,0,0,0,0,0,0.0058,0,0.2612,0,-39216,40472,180.841,0,24,0.003,0,44709088,0.0058,0,0.2612,0,2.459,139.218,0,0,0,-81.156,83.755,1,-1,0,0,0,0,0,0,0,0,0,-1,0,0,0,0,0,0,0
44709178,44.8,25.3,0,0,0,-91.9,0,0,0,0,0,0,0.0058,0,0.2612,0,-39216,40472,180.815,0,24,0.003,0,44709123,0.0058,0,0.2612,0,2.422,137.141,0,0,0,-81.156,83.755,1,-1,0,0,0,0,0,0,0,0,0,-1,0,0,0,0,0,0,0
44709210,45.5,25.4,0,0,0,-92.1,0,0,0,0,0,0,0.0058,0,0.2612,0,-39216,40472,180.515,0,24,0.003,0,44709179,0.0058,0,0.2612,0,2.41,136.449,0,0,0,-81.156,83.755,1,-1,0,0,0,0,0,0,0,0,0,-1,0,0,0,0,0,0,0
44709268,45.2,25,0,0,0,-91.6,0,0,0,0,-1,0,0.0058,0,0.2612,0,-39217,40473,179.721,0,24,0.002,0,44709211,0.0058,0,0.2612,0,2.437,137.987,0,0,0,-81.156,83.755,1,-1,0,0,0,0,0,0,0,0,0,-1,0,0,0,0,0,0,0
44709301,45.1,25,0,0,0,-90.8,0,0,0,0,-1,0,0.0058,0,0.2612,0,-39217,40473,179.769,0,24,0.003,0,44709268,0.0058,0,0.2612,0,2.408,136.372,0,0,0,-81.158,83.757,1,-1,0,0,0,0,0,0,0,0,0,-1,0,0,0,0,0,0,0
44709371,44.6,25.1,0,0,0,-91.5,0,0,0,0,0,0,0.0058,0,0.2612,0,-39216,40480,180.547,0,24,0.003,0,44709301,0.0058,0,0.2612,0,2.447,138.564,0,0,0,-81.158,83.757,1,-1,0,0,0,0,0,0,0,0,0,-1,0,0,0,0,0,0,0
44709432,43.8,25.2,0,0,0,-91.1,0,0,0,0,0,0,0.0058,0,0.2612,0,-39216,40480,180.477,0,24,0.003,0,44709371,0.0058,0,0.2612,0,2.419,136.949,0,0,0,-81.156,83.771,1,-1,0,0,0,0,0,0,0,0,0,-1,0,0,0,0,0,0,0
44709494,44.8,25.4,0,0,0,-93,0,0,0,0,0,0,0.0058,0,0.2612,0,-39216,40486,180.414,0,24,0.003,0,44709432,0.0058,0,0.2612,0,2.472,139.949,0,0,0,-81.156,83.771,1,-1,0,0,0,0,0,0,0,0,0,-1,0,0,0,0,0,0,0
44709551,43.8,25,0,0,0,-91.7,0,0,0,0,0,0,0.0058,0,0.2612,0,-39216,40488,180.022,0,24,0.003,0,44709494,0.0058,0,0.2612,0,2.407,136.295,0,0,0,-81.156,83.784,1,-1,0,0,0,0,0,0,0,0,0,-1,0,0,0,0,0,0,0
44709628,43.9,24.9,0,0,0,-90.2,0,0,0,0,0,0,0.0058,0,0.2612,0,-39216,40512,180.169,0,24,0.003,0,44709551,0.0058,0,0.2612,0,2.466,139.641,0,0,0,-81.156,83.788,1,-1,0,0,0,0,0,0,0,0,0,-1,0,0,0,0,0,0,0
44709700,43.8,25,0,0,0,-90.4,0,0,0,0,0,0,0.0058,0,0.2612,0,-39217,40517,179.737,0,24,0.002,0,44709628,0.0058,0,0.2612,0,2.442,138.295,0,0,0,-81.156,83.838,1,-1,0,0,0,0,0,0,0,0,0,-1,0,0,0,0,0,0,0
44709757,45.1,25,0,0,0,-90.3,0,0,0,0,0,0,0.0058,0,0.2612,0,-39216,40520,180.153,0,24,0.003,0,44709700,0.0058,0,0.2612,0,2.458,139.18,0,0,0,-81.158,83.848,1,-1,0,0,0,0,0,0,0,0,0,-1,0,0,0,0,0,0,0
44709829,44.5,25.2,0,0,0,-91.7,0,0,0,0,1,0,0.0058,0,0.2612,0,-39216,40548,180.668,0,24,0.003,0,44709757,0.0058,0,0.2612,0,2.43,137.603,0,0,0,-81.156,83.854,1,-1,0,0,0,0,0,0,0,0,0,-1,0,0,0,0,0,0,0
44709877,44.8,25,0,0,0,-91.2,0,0,0,0,1,0,0.0058,0,0.2612,0,-39216,40548,180.899,0,24,0.003,0,44709829,0.0058,0,0.2612,0,2.472,139.949,0,0,0,-81.156,83.912,1,-1,0,0,0,0,0,0,0,0,0,-1,0,0,0,0,0,0,0
44709943,44,25,0,0,0,-90.9,0,0,0,0,1,0,0.0058,0,0.2612,0,-39216,40548,181.445,0,24,0.003,0,44709878,0.0058,0,0.2612,0,2.481,140.449,0,0,0,-81.156,83.912,1,-1,0,0,0,0,0,0,0,0,0,-1,0,0,0,0,0,0,0
44710002,44.3,25.2,0,0,0,-90.4,0,0,0,0,0,0,0.0058,0,0.2612,0,-39216,40548,181.159,0,24,0.003,0,44709943,0.0058,0,0.2612,0,2.479,140.372,0,0,0,-81.156,83.912,1,-1,0,0,0,0,0,0,0,0,0,-1,0,0,0,0,0,0,0
44710054,45.4,25.4,0,0,0,-93.8,0,0,0,0,0,0,0.0058,0,0.2612,0,-39216,40548,181.183,0,24,0.003,0,44710003,0.0058,0,0.2612,0,2.471,139.911,0,0,0,-81.156,83.912,1,-1,0,0,0,0,0,0,0,0,0,-1,0,0,0,0,0,0,0
44710114,44.1,25.2,0,0,0,-93.7,0,0,0,0,0,0,0.0058,0,0.2612,0,-39216,40548,181.505,0,24,0.003,0,44710054,0.0058,0,0.2612,0,2.438,138.026,0,0,0,-81.156,83.912,1,-1,0,0,0,0,0,0,0,0,0,-1,0,0,0,0,0,0,0
44710152,44.5,25,0,0,0,-93.2,0,0,0,0,0,0,0.0058,0,0.2612,0,-39216,40548,181.31,0,24,0.002,0,44710114,0.0058,0,0.2612,0,2.478,140.295,0,0,0,-81.156,83.912,1,-1,0,0,0,0,0,0,0,0,0,-1,0,0,0,0,0,0,0
44710217,44.8,25.4,0,0,0,-94.8,0,0,0,0,0,0,0.0058,0,0.2612,0,-39216,40548,181.454,0,24,0.003,0,44710152,0.0058,0,0.2612,0,2.451,138.757,0,0,0,-81.156,83.912,1,-1,0,0,0,0,0,0,0,0,0,-1,0,0,0,0,0,0,0
44710279,44.1,25.4,0,0,0,-95.6,0,0,0,0,0,0,0.0058,0,0.2612,0,-39216,40548,181.765,0,24,0.002,0,44710217,0.0058,0,0.2612,0,2.408,136.333,0,0,0,-81.156,83.912,1,-1,0,0,0,0,0,0,0,0,0,-1,0,0,0,0,0,0,0
44710358,44,25.4,0,0,0,-96.7,0,0,0,0,0,0,0.0058,0,0.2612,0,-39216,40548,182,0,24,0.003,0,44710280,0.0058,0,0.2612,0,2.457,139.141,0,0,0,-81.156,83.912,1,-1,0,0,0,0,0,0,0,0,0,-1,0,0,0,0,0,0,0
44710409,43.8,25,0,0,0,-94.6,0,0,0,0,2,0,0.0058,0,0.2612,0,-39216,40548,183.376,0,24,0.003,0,44710358,0.0058,0,0.2612,0,2.426,137.372,0,0,0,-81.156,83.912,1,-1,0,0,0,0,0,0,0,0,0,-1,0,0,0,0,0,0,0
44710470,45.2,25.4,0,0,0,-95.9,0,0,0,0,0,0,0.0058,0,0.2612,0,-39216,40548,182.958,0,24,0.003,0,44710409,0.0058,0,0.2612,0,2.455,138.988,0,0,0,-81.156,83.912,1,-1,0,0,0,0,0,0,0,0,0,-1,0,0,0,0,0,0,0
44710535,45,25.1,0,0,0,-93.9,0,0,0,0,0,0,0.0058,0,0.2612,0,-39216,40548,183.15,0,24,0.003,0,44710470,0.0058,0,0.2612,0,2.426,137.372,0,0,0,-81.156,83.912,1,-1,0,0,0,0,0,0,0,0,0,-1,0,0,0,0,0,0,0
44710584,44.9,24.9,0,0,0,-93,0,0,0,0,0,0,0.0058,0,0.2612,0,-39216,40548,183.142,0,24,0.002,0,44710535,0.0058,0,0.2612,0,2.434,137.833,0,0,0,-81.156,83.912,1,-1,0,0,0,0,0,0,0,0,0,-1,0,0,0,0,0,0,0
44710636,44.5,24.8,0,0,0,-86.7,0,0,0,0,0,0,0.0058,0,0.2612,0,-39216,40548,183.794,0,24,0.003,0,44710584,0.0058,0,0.2612,0,2.437,137.987,0,0,0,-81.156,83.912,1,-1,0,0,0,0,0,0,0,0,0,-1,0,0,0,0,0,0,0
44710669,45.4,24.5,0,0,0,-83.7,0,0,0,0,1,0,0.0058,0,0.2612,0,-39216,40548,184.049,0,24,0.003,0,44710637,0.0058,0,0.2612,0,2.419,136.949,0,0,0,-81.156,83.912,1,-1,0,0,0,0,0,0,0,0,0,-1,0,0,0,0,0,0,0
44710725,43.8,24.7,0,0,0,-81.7,0,0,0,0,0,0,0.0058,0,0.2612,0,-39216,40548,183.16,0,24,0.003,0,44710669,0.0058,0,0.2612,0,2.437,137.987,0,0,0,-81.156,83.912,1,-1,0,0,0,0,0,0,0,0,0,-1,0,0,0,0,0,0,0
44710787,44.2,24.7,0,0,0,-82,0,0,0,0,1,0,0.0058,0,0.2612,0,-39216,40548,184.167,0,24,0.003,0,44710726,0.0058,0,0.2612,0,2.448,138.603,0,0,0,-81.156,83.912,1,-1,0,0,0,0,0,0,0,0,0,-1,0,0,0,0,0,0,0
44710850,44.2,24.9,0,0,0,-84.7,0,0,0,0,-1,0,0.0058,0,0.2612,0,-39216,40548,183.418,0,24,0.002,0,44710787,0.0058,0,0.2612,0,2.47,139.834,0,0,0,-81.156,83.912,1,-1,0,0,0,0,0,0,0,0,0,-1,0,0,0,0,0,0,0
44710912,44.6,24.9,0,0,0,-85.7,0,0,0,0,0,0,0.0058,0,0.2612,0,-39216,40548,183.958,0,24,0.003,0,44710850,0.0058,0,0.2612,0,2.461,139.334,0,0,0,-81.156,83.912,1,-1,0,0,0,0,0,0,0,0,0,-1,0,0,0,0,0,0,0
44710979,45.3,24.9,0,0,0,-92,0,0,0,0,0,0,0.0058,0,0.2612,0,-39216,40548,184.25,0,24,0.002,0,44710913,0.0058,0,0.2612,0,2.416,136.795,0,0,0,-81.156,83.912,1,-1,0,0,0,0,0,0,0,0,0,-1,0,0,0,0,0,0,0
44711042,45.2,25.3,0,0,0,-93.3,0,0,0,0,-1,0,0.0058,0,0.2612,0,-39216,40548,183.514,0,24,0.003,0,44710979,0.0058,0,0.2612,0,2.422,137.141,0,0,0,-81.156,83.912,1,-1,0,0,0,0,0,0,0,0,0,-1,0,0,0,0,0,0,0
44711092,44.3,25.3,0,0,0,-95.1,0,0,0,0,1,0,0.0058,0,0.2612,0,-39216,40548,184.339,0,24,0.003,0,44711042,0.0058,0,0.2612,0,2.436,137.91,0,0,0,-81.156,83.912,1,-1,0,0,0,0,0,0,0,0,0,-1,0,0,0,0,0,0,0
44711146,43.9,25.4,0,0,0,-94.9,0,0,0,0,0,0,0.0058,0,0.2612,0,-39216,40548,183.805,0,24,0.002,0,44711093,0.0058,0,0.2612,0,2.405,136.179,0,0,0,-81.156,83.912,1,-1,0,0,0,0,0,0,0,0,0,-1,0,0,0,0,0,0,0
44711189,45,25.4,0,0,0,-96.5,0,0,0,0,0,0,0.0058,0,0.2612,0,-39216,40548,183.605,0,24,0.002,0,44711146,0.0058,0,0.2612,0,2.477,140.257,0,0,0,-81.156,83.912,1,-1,0,0,0,0,0,0,0,0,0,-1,0,0,0,0,0,0,0
44711254,43.7,24.6,0,0,0,-93.6,0,0,0,0,-1,0,0.0058,0,0.2612,0,-39216,40548,183.18,0,24,0.002,0,44711189,0.0058,0,0.2612,0,2.408,136.372,0,0,0,-81.156,83.912,1,-1,0,0,0,0,0,0,0,0,0,-1,0,0,0,0,0,0,0
44711328,45.5,24.6,0,0,0,-87.3,0,0,0,0,0,0,0.0058,0,0.2612,0,-39216,40548,183.566,0,24,0.003,0,44711254,0.0058,0,0.2612,0,2.44,138.141,0,0,0,-81.156,83.912,1,-1,0,0,0,0,0,0,0,0,0,-1,0,0,0,0,0,0,0
44711383,45.1,25.3,0,0,0,-89,0,0,0,0,0,0,0.0058,0,0.2612,0,-39216,40548,183.5,0,24,0.003,0,44711328,0.0058,0,0.2612,0,2.421,137.064,0,0,0,-81.156,83.912,1,-1,0,0,0,0,0,0,0,0,0,-1,0,0,0,0,0,0,0
44711437,44,25.2,0,0,0,-91.5,0,0,0,0,0,0,0.0058,0,0.2612,0,-39216,40548,183.489,0,24,0.003,0,44711383,0.0058,0,0.2612,0,2.407,136.295,0,0,0,-81.156,83.912,1,-1,0,0,0,0,0,0,0,0,0,-1,0,0,0,0,0,0,0
44711506,45.4,25.4,0,0,0,-92.5,0,0,0,0,-1,0,0.0058,0,0.2612,0,-39216,40548,182.873,0,24,0.003,0,44711437,0.0058,0,0.2612,0,2.483,140.565,0,0,0,-81.156,83.912,1,-1,0,0,0,0,0,0,0,0,0,-1,0,0,0,0,0,0,0
44711596,45.2,25.2,0,0,0,-92.9,0,0,0,0,0,0,0.0058,0,0.2612,0,-39216,40548,182.883,0,24,0.003,0,44711506,0.0058,0,0.2612,0,2.419,136.987,0,0,0,-81.156,83.912,1,-1,0,0,0,0,0,0,0,0,0,-1,0,0,0,0,0,0,0
44711668,44.8,25.2,0,0,0,-92.2,0,0,0,0,-1,0,0.0058,0,0.2612,0,-39216,40548,182.258,0,24,0.002,0,44711596,0.0058,0,0.2612,0,2.432,137.68,0,0,0,-81.156,83.912,1,-1,0,0,0,0,0,0,0,0,0,-1,0,0,0,0,0,0,0
44711732,45.4,25.2,0,0,0,-92.5,0,0,0,0,1,0,0.0058,0,0.2612,0,-39216,40548,183.584,0,24,0.003,0,44711669,0.0058,0,0.2612,0,2.409,136.41,0,0,0,-81.156,83.912,1,-1,0,0,0,0,0,0,0,0,0,-1,0,0,0,0,0,0,0
44711789,45,25.3,0,0,0,-94.1,0,0,0,0,0,0,0.0058,0,0.2612,0,-39216,40548,183.427,0,24,0.002,0,44711732,0.0058,0,0.2612,0,2.442,138.295,0,0,0,-81.156,83.912,1,-1,0,0,0,0,0,0,0,0,0,-1,0,0,0,0,0,0,0
44711852,44.4,25.3,0,0,0,-94.1,0,0,0,0,0,0,0.0058,0,0.2612,0,-39216,40548,183.435,0,24,0.003,0,44711789,0.0058,0,0.2612,0,2.423,137.218,0,0,0,-81.156,83.912,1,-1,0,0,0,0,0,0,0,0,0,-1,0,0,0,0,0,0,0
44711913,45.4,25.3,0,0,0,-94.4,0,0,0,0,0,0,0.0058,0,0.2612,0,-39216,40548,183.77,0,24,0.003,0,44711853,0.0058,0,0.2612,0,2.432,137.68,0,0,0,-81.156,83.912,1,-1,0,0,0,0,0,0,0,0,0,-1,0,0,0,0,0,0,0
44711961,45.1,24.8,0,0,0,-89.7,0,0,0,0,1,0,0.0058,0,0.2612,0,-39216,40548,184.388,0,24,0.002,0,44711913,0.0058,0,0.2612,0,2.413,136.603,0,0,0,-81.156,83.912,1,-1,0,0,0,0,0,0,0,0,0,-1,0,0,0,0,0,0,0
44712049,44,25.1,0,0,0,-88.2,0,0,0,0,0,0,0.0058,0,0.2612,0,-39216,40548,184.264,0,24,0.003,0,44711961,0.0058,0,0.2612,0,2.424,137.256,0,0,0,-81.156,83.912,1,-1,0,0,0,0,0,0,0,0,0,-1,0,0,0,0,0,0,0
44712118,44,25.1,0,0,0,-87.9,0,0,0,0,0,0,0.0058,0,0.2612,0,-39216,40548,183.56,0,24,0.002,0,44712049,0.0058,0,0.2612,0,2.459,139.218,0,0,0,-81.156,83.912,1,-1,0,0,0,0,0,0,0,0,0,-1,0,0,0,0,0,0,0
44712196,44.6,24.8,0,0,0,-85,0,0,0,0,0,0,0.0058,0,0.2612,0,-39216,40548,183.346,0,24,0.003,0,44712119,0.0058,0,0.2612,0,2.436,137.949,0,0,0,-81.156,83.912,1,-1,0,0,0,0,0,0,0,0,0,-1,0,0,0,0,0,0,0
44712263,45.6,24.6,0,0,0,-82.4,0,0,0,0,-1,0,0.0058,0,0.2612,0,-39216,40548,182.627,0,24,0.003,0,44712196,0.0058,0,0.2612,0,2.406,136.218,0,0,0,-81.156,83.912,1,-1,0,0,0,0,0,0,0,0,0,-1,0,0,0,0,0,0,0
44712318,44.1,24.7,0,0,0,-83.9,0,0,0,0,0,0,0.0058,0,0.2612,0,-39216,40548,182.877,0,24,0.003,0,44712263,0.0058,0,0.2612,0,2.431,137.641,0,0,0,-81.156,83.912,1,-1,0,0,0,0,0,0,0,0,0,-1,0,0,0,0,0,0,0
44712398,44.2,25.3,0,0,0,-91.2,0,0,0,0,-1,0,0.0058,0,0.2612,0,-39216,40548,182.352,0,24,0.003,0,44712318,0.0058,0,0.2612,0,2.442,138.295,0,0,0,-81.156,83.912,1,-1,0,0,0,0,0,0,0,0,0,-1,0,0,0,0,0,0,0
44712472,43.8,25.4,0,0,0,-94.3,0,0,0,0,-1,0,0.0058,0,0.2612,0,-39216,40548,182.221,0,24,0.003,0,44712398,0.0058,0,0.2612,0,2.471,139.911,0,0,0,-81.156,83.912,1,-1,0,0,0,0,0,0,0,0,0,-1,0,0,0,0,0,0,0
44712536,44.4,25.3,0,0,0,-94,0,0,0,0,0,0,0.0058,0,0.2612,0,-39216,40548,182.684,0,24,0.003,0,44712472,0.0058,0,0.2612,0,2.456,139.064,0,0,0,-81.156,83.912,1,-1,0,0,0,0,0,0,0,0,0,-1,0,0,0,0,0,0,0
44712594,44.2,25,0,0,0,-93.4,0,0,0,0,0,0,0.0058,0,0.2612,0,-39216,40548,182.633,0,24,0.003,0,44712537,0.0058,0,0.2612,0,2.483,140.565,0,0,0,-81.156,83.912,1,-1,0,0,0,0,0,0,0,0,0,-1,0,0,0,0,0,0,0
44712681,45.6,24.9,0,0,0,-95.5,0,0,0,0,0,0,0.0058,0,0.2612,0,-39216,40548,182.278,0,24,0.003,0,44712594,0.0058,0,0.2612,0,2.441,138.218,0,0,0,-81.156,83.912,1,-1,0,0,0,0,0,0,0,0,0,-1,0,0,0,0,0,0,0
44712750,44.5,24.8,0,0,0,-91.4,0,0,0,0,1,0,0.0058,0,0.2612,0,-39216,40548,182.914,0,24,0.003,0,44712681,0.0058,0,0.2612,0,2.451,138.795,0,0,0,-81.156,83.912,1,-1,0,0,0,0,0,0,0,0,0,-1,0,0,0,0,0,0,0
44712814,44.6,25,0,0,0,-93.6,0,0,0,0,0,0,0.0058,0,0.2612,0,-39216,40548,182.84,0,24,0.003,0,44712751,0.0058,0,0.2612,0,2.445,138.449,0,0,0,-81.156,83.912,1,-1,0,0,0,0,0,0,0,0,0,-1,0,0,0,0,0,0,0
44712872,44.5,25.1,0,0,0,-93.2,0,0,0,0,0,0,0.0058,0,0.2612,0,-39216,40548,182.771,0,24,0.003,0,44712814,0.0058,0,0.2612,0,2.453,138.911,0,0,0,-81.156,83.912,1,-1,0,0,0,0,0,0,0,0,0,-1,0,0,0,0,0,0,0
44712933,44.6,24.9,0,0,0,-92.8,0,0,0,0,0,0,0.0058,0,0.2612,0,-39216,40548,182.57,0,24,0.003,0,44712876,0.0058,0,0.2612,0,2.45,138.718,0,0,0,-81.156,83.912,1,-1,0,0,0,0,0,0,0,0,0,-1,0,0,0,0,0,0,0
44712991,44.3,25,0,0,0,-91.9,0,0,0,0,0,0,0.0058,0,0.2612,0,-39216,40548,182.633,0,24,0.003,0,44712933,0.0058,0,0.2612,0,2.474,140.065,0,0,0,-81.156,83.912,1,-1,0,0,0,0,0,0,0,0,0,-1,0,0,0,0,0,0,0
44713070,44,25.1,0,0,0,-93.6,0,0,0,0,0,0,0.0058,0,0.2612,0,-39216,40548,182.2,0,24,0.002,0,44712992,0.0058,0,0.2612,0,2.458,139.18,0,0,0,-81.156,83.912,1,-1,0,0,0,0,0,0,0,0,0,-1,0,0,0,0,0,0,0
44713156,44.3,24.8,0,0,0,-91.9,0,0,0,0,1,0,0.0058,0,0.2612,0,-39216,40548,182.656,0,24,0.003,0,44713071,0.0058,0,0.2612,0,2.456,139.064,0,0,0,-81.156,83.912,1,-1,0,0,0,0,0,0,0,0,0,-1,0,0,0,0,0,0,0
44713211,45.6,25.3,0,0,0,-91.6,0,0,0,0,-2,0,0.0058,0,0.2612,0,-39216,40548,181.077,0,24,0.003,0,44713156,0.0058,0,0.2612,0,2.455,138.988,0,0,0,-81.156,83.912,1,-1,0,0,0,0,0,0,0,0,0,-1,0,0,0,0,0,0,0
44713298,45.6,25.2,0,0,0,-91.4,0,0,0,0,0,0,0.0058,0,0.2612,0,-39216,40548,180.953,0,24,0.003,0,44713212,0.0058,0,0.2612,0,2.442,138.295,0,0,0,-81.156,83.912,1,-1,0,0,0,0,0,0,0,0,0,-1,0,0,0,0,0,0,0
44713373,43.8,25.3,0,0,0,-93.2,0,0,0,0,0,0,0.0058,0,0.2612,0,-39216,40548,180.519,0,24,0.003,0,44713298,0.0058,0,0.2612,0,2.44,138.141,0,0,0,-81.156,83.912,1,-1,0,0,0,0,0,0,0,0,0,-1,0,0,0,0,0,0,0
44713436,43.7,25,0,0,0,-92.6,0,0,0,0,0,0,0.0058,0,0.2612,0,-39216,40548,180.94,0,24,0.003,0,44713373,0.0058,0,0.2612,0,2.467,139.68,0,0,0,-81.156,83.912,1,-1,0,0,0,0,0,0,0,0,0,-1,0,0,0,0,0,0,0
44713522,45.6,25.2,0,0,0,-93.9,0,0,0,0,-1,0,0.0058,0,0.2612,0,-39217,40551,179.873,0,24,0.002,0,44713437,0.0058,0,0.2612,0,2.438,138.064,0,0,0,-81.156,83.912,1,-1,0,0,0,0,0,0,0,0,0,-1,0,0,0,0,0,0,0
44713591,45.3,25.2,0,0,0,-92.8,0,0,0,0,0,0,0.0058,0,0.2612,0,-39216,40562,180.049,0,24,0.003,0,44713522,0.0058,0,0.2612,0,2.429,137.526,0,0,0,-81.158,83.918,1,-1,0,0,0,0,0,0,0,0,0,-1,0,0,0,0,0,0,0
44713653,43.9,25.1,0,0,0,-93.7,0,0,0,0,0,0,0.0058,0,0.2612,0,-39216,40564,180.117,0,24,0.003,0,44713591,0.0058,0,0.2612,0,2.444,138.41,0,0,0,-81.156,83.941,1,-1,0,0,0,0,0,0,0,0,0,-1,0,0,0,0,0,0,0
44713722,44,25.2,0,0,0,-92.3,0,0,0,0,0,0,0.0058,0,0.2612,0,-39216,40564,180.428,0,24,0.002,0,44713653,0.0058,0,0.2612,0,2.445,138.449,0,0,0,-81.156,83.945,1,-1,0,0,0,0,0,0,0,0,0,-1,0,0,0,0,0,0,0
44713794,44.1,25.1,0,0,0,-93.9,0,0,0,0,0,0,0.0058,0,0.2612,0,-39216,40564,180.908,0,24,0.003,0,44713722,0.0058,0,0.2612,0,2.462,139.411,0,0,0,-81.156,83.945,1,-1,0,0,0,0,0,0,0,0,0,-1,0,0,0,0,0,0,0
44713856,45,25.2,0,0,0,-95,0,0,0,0,1,0,0.0058,0,0.2612,0,-39216,40564,181.332,0,24,0.002,0,44713795,0.0058,0,0.2612,0,2.458,139.18,0,0,0,-81.156,83.945,1,-1,0,0,0,0,0,0,0,0,0,-1,0,0,0,0,0,0,0
44713915,45,25.1,0,0,0,-95.1,0,0,0,0,0,0,0.0058,0,0.2612,0,-39216,40564,181.199,0,24,0.002,0,44713856,0.0058,0,0.2612,0,2.406,136.256,0,0,0,-81.156,83.945,1,-1,0,0,0,0,0,0,0,0,0,-1,0,0,0,0,0,0,0
44713978,45.3,24.8,0,0,0,-92,0,0,0,0,0,0,0.0058,0,0.2612,0,-39216,40564,181.421,0,24,0.003,0,44713915,0.0058,0,0.2612,0,2.415,136.756,0,0,0,-81.156,83.945,1,-1,0,0,0,0,0,0,0,0,0,-1,0,0,0,0,0,0,0
44714036,45.7,25.1,0,0,0,-91.8,0,0,0,0,0,0,0.0058,0,0.2612,0,-39216,40564,181.425,0,24,0.002,0,44713978,0.0058,0,0.2612,0,2.428,137.487,0,0,0,-81.156,83.945,1,-1,0,0,0,0,0,0,0,0,0,-1,0,0,0,0,0,0,0
44714100,43.9,25.1,0,0,0,-92.3,0,0,0,0,-1,0,0.0058,0,0.2612,0,-39216,40564,180.152,0,24,0.002,0,44714036,0.0058,0,0.2612,0,2.449,138.68,0,0,0,-81.156,83.945,1,-1,0,0,0,0,0,0,0,0,0,-1,0,0,0,0,0,0,0
44714166,45.7,25.2,0,0,0,-92.5,0,0,0,0,0,0,0.0058,0,0.2612,0,-39217,40583,179.905,0,24,0.003,0,44714100,0.0058,0,0.2612,0,2.453,138.911,0,0,0,-81.156,83.945,1,-1,0,0,0,0,0,0,0,0,0,-1,0,0,0,0,0,0,0
44714225,45.6,25.2,0,0,0,-93.4,0,0,0,0,0,0,0.0058,0,0.2612,0,-39216,40590,180.266,0,24,0.003,0,44714167,0.0058,0,0.2612,0,2.409,136.41,0,0,0,-81.158,83.984,1,-1,0,0,0,0,0,0,0,0,0,-1,0,0,0,0,0,0,0
44714269,44.3,25.3,0,0,0,-95.5,0,0,0,0,1,0,0.0058,0,0.2612,0,-39216,40596,180.894,0,24,0.003,0,44714225,0.0058,0,0.2612,0,2.419,136.987,0,0,0,-81.156,83.999,1,-1,0,0,0,0,0,0,0,0,0,-1,0,0,0,0,0,0,0
44714328,45.4,25.1,0,0,0,-95.5,0,0,0,0,0,0,0.0058,0,0.2612,0,-39216,40596,181.21,0,24,0.003,0,44714269,0.0058,0,0.2612,0,2.476,140.218,0,0,0,-81.156,84.011,1,-1,0,0,0,0,0,0,0,0,0,-1,0,0,0,0,0,0,0
44714360,44.7,25.3,0,0,0,-95.9,0,0,0,0,0,0,0.0058,0,0.2612,0,-39216,40596,180.833,0,24,0.002,0,44714330,0.0058,0,0.2612,0,2.429,137.526,0,0,0,-81.156,84.011,1,-1,0,0,0,0,0,0,0,0,0,-1,0,0,0,0,0,0,0
44714414,45.5,25,0,0,0,-94.2,0,0,0,0,-1,0,0.0058,0,0.2612,0,-39217,40615,179.928,0,24,0.003,0,44714360,0.0058,0,0.2612,0,2.426,137.372,0,0,0,-81.156,84.011,1,-1,0,0,0,0,0,0,0,0,0,-1,0,0,0,0,0,0,0
44714462,44.4,25,0,0,0,-94.4,0,0,0,0,0,0,0.0058,0,0.2612,0,-39217,40631,179.755,0,24,0.003,0,44714414,0.0058,0,0.2612,0,2.453,138.911,0,0,0,-81.158,84.051,1,-1,0,0,0,0,0,0,0,0,0,-1,0,0,0,0,0,0,0
44714539,45.4,25.2,0,0,0,-93.1,0,0,0,0,0,0,0.0058,0,0.2612,0,-39217,40631,179.688,0,24,0.003,0,44714463,0.0058,0,0.2612,0,2.487,140.795,0,0,0,-81.158,84.084,1,-1,0,0,0,0,0,0,0,0,0,-1,0,0,0,0,0,0,0
44714622,44.1,25.1,0,0,0,-90.8,0,0,0,0,0,0,0.0058,0,0.2612,0,-39217,40631,179.386,0,24,0.002,0,44714539,0.0058,0,0.2612,0,2.417,136.833,0,0,0,-81.158,84.084,1,-1,0,0,0,0,0,0,0,0,0,-1,0,0,0,0,0,0,0
44714688,44.2,25,0,0,0,-90.2,0,0,0,0,0,0,0.0058,0,0.2612,0,-39217,40631,179.849,0,24,0.002,0,44714623,0.0058,0,0.2612,0,2.466,139.641,0,0,0,-81.158,84.084,1,-1,0,0,0,0,0,0,0,0,0,-1,0,0,0,0,0,0,0
44714747,44.7,25,0,0,0,-92.9,0,0,0,0,1,0,0.0058,0,0.2612,0,-39216,40632,180.814,0,24,0.002,0,44714689,0.0058,0,0.2612,0,2.463,139.449,0,0,0,-81.158,84.084,1,-1,0,0,0,0,0,0,0,0,0,-1,0,0,0,0,0,0,0
44714810,45.6,25.1,0,0,0,-94.4,0,0,0,0,2,0,0.0058,0,0.2612,0,-39216,40632,181.633,0,24,0.002,0,44714747,0.0058,0,0.2612,0,2.464,139.488,0,0,0,-81.156,84.086,1,-1,0,0,0,0,0,0,0,0,0,-1,0,0,0,0,0,0,0
44714870,44.2,25.4,0,0,0,-95.1,0,0,0,0,0,0,0.0058,0,0.2612,0,-39216,40632,181.113,0,24,0.003,0,44714811,0.0058,0,0.2612,0,2.444,138.41,0,0,0,-81.156,84.086,1,-1,0,0,0,0,0,0,0,0,0,-1,0,0,0,0,0,0,0
44714923,45.2,25.4,0,0,0,-96.7,0,0,0,0,0,0,0.0058,0,0.2612,0,-39216,40632,181.133,0,24,0.002,0,44714871,0.0058,0,0.2612,0,2.464,139.526,0,0,0,-81.156,84.086,1,-1,0,0,0,0,0,0,0,0,0,-1,0,0,0,0,0,0,0
44714955,45.6,25.3,0,0,0,-96.6,0,0,0,0,-1,0,0.0058,0,0.2612,0,-39216,40632,180.694,0,24,0.002,0,44714923,0.0058,0,0.2612,0,2.431,137.641,0,0,0,-81.156,84.086,1,-1,0,0,0,0,0,0,0,0,0,-1,0,0,0,0,0,0,0
44714981,44.6,24.7,0,0,0,-93.9,0,0,0,0,-1,0,0.0058,0,0.2612,0,-39216,40632,180.41,0,24,0.002,0,44714956,0.0058,0,0.2612,0,2.429,137.526,0,0,0,-81.156,84.086,1,-1,0,0,0,0,0,0,0,0,0,-1,0,0,0,0,0,0,0
44715029,44.6,25.1,0,0,0,-93.7,0,0,0,0,0,0,0.0058,0,0.2612,0,-39216,40632,180.304,0,24,0.003,0,44714981,0.0058,0,0.2612,0,2.439,138.103,0,0,0,-81.156,84.086,1,-1,0,0,0,0,0,0,0,0,0,-1,0,0,0,0,0,0,0
44715099,44.3,24.8,0,0,0,-93.3,0,0,0,0,0,0,0.0058,0,0.2612,0,-39216,40642,180.456,0,24,0.002,0,44715029,0.0058,0,0.2612,0,2.436,137.949,0,0,0,-81.156,84.086,1,-1,0,0,0,0,0,0,0,0,0,-1,0,0,0,0,0,0,0
44715163,43.9,25.1,0,0,0,-91.5,0,0,0,0,0,0,0.0058,0,0.2612,0,-39216,40642,180.962,0,24,0.002,0,44715100,0.0058,0,0.2612,0,2.408,136.333,0,0,0,-81.156,84.107,1,-1,0,0,0,0,0,0,0,0,0,-1,0,0,0,0,0,0,0
44715220,44.6,25.2,0,0,0,-91.6,0,0,0,0,0,0,0.0058,0,0.2612,0,-39216,40642,181.055,0,24,0.003,0,44715163,0.0058,0,0.2612,0,2.446,138.487,0,0,0,-81.156,84.107,1,-1,0,0,0,0,0,0,0,0,0,-1,0,0,0,0,0,0,0
44715288,45.2,25.2,0,0,0,-92.2,0,0,0,0,0,0,0.0058,0,0.2612,0,-39216,40642,181.15,0,24,0.003,0,44715220,0.0058,0,0.2612,0,2.483,140.603,0,0,0,-81.156,84.107,1,-1,0,0,0,0,0,0,0,0,0,-1,0,0,0,0,0,0,0
44715342,44.7,25,0,0,0,-91.4,0,0,0,0,0,0,0.0058,0,0.2612,0,-39216,40642,180.989,0,24,0.002,0,44715288,0.0058,0,0.2612,0,2.429,137.526,0,0,0,-81.156,84.107,1,-1,0,0,0,0,0,0,0,0,0,-1,0,0,0,0,0,0,0
44715410,44,24.9,0,0,0,-90.2,0,0,0,0,0,0,0.0058,0,0.2612,0,-39216,40642,180.805,0,24,0.002,0,44715342,0.0058,0,0.2612,0,2.454,138.949,0,0,0,-81.156,84.107,1,-1,0,0,0,0,0,0,0,0,0,-1,0,0,0,0,0,0,0
44715469,43.9,25.2,0,0,0,-92.3,0,0,0,0,0,0,0.0058,0,0.2612,0,-39216,40642,181.106,0,24,0.003,0,44715410,0.0058,0,0.2612,0,2.462,139.411,0,0,0,-81.156,84.107,1,-1,0,0,0,0,0,0,0,0,0,-1,0,0,0,0,0,0,0
44715530,44.6,25,0,0,0,-91.3,0,0,0,0,1,0,0.0058,0,0.2612,0,-39216,40642,181.852,0,24,0.003,0,44715469,0.0058,0,0.2612,0,2.453,138.911,0,0,0,-81.156,84.107,1,-1,0,0,0,0,0,0,0,0,0,-1,0,0,0,0,0,0,0
44715579,43.7,25.2,0,0,0,-90.8,0,0,0,0,0,0,0.0058,0,0.2612,0,-39216,40642,181.561,0,24,0.003,0,44715530,0.0058,0,0.2612,0,2.481,140.488,0,0,0,-81.156,84.107,1,-1,0,0,0,0,0,0,0,0,0,-1,0,0,0,0,0,0,0
44715637,45.2,25.4,0,0,0,-92.7,0,0,0,0,0,0,0.0058,0,0.2612,0,-39216,40642,181.046,0,24,0.002,0,44715579,0.0058,0,0.2612,0,2.445,138.449,0,0,0,-81.156,84.107,1,-1,0,0,0,0,0,0,0,0,0,-1,0,0,0,0,0,0,0
44715711,45.6,25,0,0,0,-91.5,0,0,0,0,0,0,0.0058,0,0.2612,0,-39216,40642,180.971,0,24,0.003,0,44715637,0.0058,0,0.2612,0,2.419,136.987,0,0,0,-81.156,84.107,1,-1,0,0,0,0,0,0,0,0,0,-1,0,0,0,0,0,0,0
44715781,44.6,24.7,0,0,0,-88.5,0,0,0,0,0,0,0.0058,0,0.2612,0,-39216,40642,181.158,0,24,0.003,0,44715712,0.0058,0,0.2612,0,2.434,137.795,0,0,0,-81.156,84.107,1,-1,0,0,0,0,0,0,0,0,0,-1,0,0,0,0,0,0,0
44715826,44.2,25.1,0,0,0,-90.8,0,0,0,0,0,0,0.0058,0,0.2612,0,-39216,40642,181.328,0,24,0.003,0,44715781,0.0058,0,0.2612,0,2.474,140.065,0,0,0,-81.156,84.107,1,-1,0,0,0,0,0,0,0,0,0,-1,0,0,0,0,0,0,0
44715871,44.1,25,0,0,0,-92.6,0,0,0,0,0,0,0.0058,0,0.2612,0,-39216,40642,181.307,0,24,0.002,0,44715826,0.0058,0,0.2612,0,2.464,139.488,0,0,0,-81.156,84.107,1,-1,0,0,0,0,0,0,0,0,0,-1,0,0,0,0,0,0,0
44715943,44.2,25.1,0,0,0,-92.3,0,0,0,0,0,0,0.0058,0,0.2612,0,-39216,40642,180.711,0,24,0.003,0,44715871,0.0058,0,0.2612,0,2.484,140.642,0,0,0,-81.156,84.107,1,-1,0,0,0,0,0,0,0,0,0,-1,0,0,0,0,0,0,0
44716008,44.9,25.3,0,0,0,-94.8,0,0,0,0,-2,0,0.0058,0,0.2612,0,-39217,40643,179.433,0,24,0.002,0,44715943,0.0058,0,0.2612,0,2.449,138.641,0,0,0,-81.156,84.107,1,-1,0,0,0,0,0,0,0,0,0,-1,0,0,0,0,0,0,0
44716071,43.9,25,0,0,0,-94.6,0,0,0,0,-1,0,0.0058,0,0.2612,0,-39217,40643,178.642,0,24,0.002,0,44716008,0.0058,0,0.2612,0,2.41,136.449,0,0,0,-81.158,84.109,1,-1,0,0,0,0,0,0,0,0,0,-1,0,0,0,0,0,0,0
44716131,44.4,25,0,0,0,-94.5,0,0,0,0,0,0,0.0058,0,0.2612,0,-39217,40643,179.206,0,24,0.002,0,44716071,0.0058,0,0.2612,0,2.459,139.218,0,0,0,-81.158,84.109,1,-1,0,0,0,0,0,0,0,0,0,-1,0,0,0,0,0,0,0
44716197,44.2,25,0,0,0,-93.7,0,0,0,0,0,0,0.0058,0,0.2612,0,-39217,40643,179.231,0,24,0.003,0,44716131,0.0058,0,0.2612,0,2.404,136.141,0,0,0,-81.158,84.109,1,-1,0,0,0,0,0,0,0,0,0,-1,0,0,0,0,0,0,0
44716248,43.9,24.7,0,0,0,-92.3,0,0,0,0,0,0,0.0058,0,0.2612,0,-39217,40643,179.2,0,24,0.003,0,44716198,0.0058,0,0.2612,0,2.442,138.295,0,0,0,-81.158,84.109,1,-1,0,0,0,0,0,0,0,0,0,-1,0,0,0,0,0,0,0
44716319,45.3,24.9,0,0,0,-92.7,0,0,0,0,1,0,0.0058,0,0.2612,0,-39217,40643,179.66,0,24,0.002,0,44716249,0.0058,0,0.2612,0,2.481,140.449,0,0,0,-81.158,84.109,1,-1,0,0,0,0,0,0,0,0,0,-1,0,0,0,0,0,0,0
44716369,44.3,25.1,0,0,0,-94.2,0,0,0,0,0,0,0.0058,0,0.2612,0,-39216,40644,180.238,0,24,0.003,0,44716319,0.0058,0,0.2612,0,2.41,136.449,0,0,0,-81.158,84.109,1,-1,0,0,0,0,0,0,0,0,0,-1,0,0,0,0,0,0,0
44716426,44.3,25.1,0,0,0,-94.5,0,0,0,0,0,0,0.0058,0,0.2612,0,-39217,40657,179.575,0,24,0.003,0,44716369,0.0058,0,0.2612,0,2.436,137.949,0,0,0,-81.156,84.111,1,-1,0,0,0,0,0,0,0,0,0,-1,0,0,0,0,0,0,0
44716472,44,25.1,0,0,0,-93.8,0,0,0,0,0,0,0.0058,0,0.2612,0,-39217,40657,179.195,0,24,0.003,0,44716426,0.0058,0,0.2612,0,2.466,139.603,0,0,0,-81.158,84.138,1,-1,0,0,0,0,0,0,0,0,0,-1,0,0,0,0,0,0,0
44716542,44.1,25.1,0,0,0,-95.3,0,0,0,0,2,0,0.0058,0,0.2612,0,-39216,40660,180.524,0,24,0.002,0,44716472,0.0058,0,0.2612,0,2.467,139.68,0,0,0,-81.158,84.138,1,-1,0,0,0,0,0,0,0,0,0,-1,0,0,0,0,0,0,0
44716600,43.8,25,0,0,0,-95.1,0,0,0,0,0,0,0.0058,0,0.2612,0,-39216,40660,180.484,0,24,0.002,0,44716543,0.0058,0,0.2612,0,2.421,137.103,0,0,0,-81.156,84.144,1,-1,0,0,0,0,0,0,0,0,0,-1,0,0,0,0,0,0,0
44716658,45,25,0,0,0,-93.8,0,0,0,0,0,0,0.0058,0,0.2612,0,-39216,40660,180.299,0,24,0.003,0,44716601,0.0058,0,0.2612,0,2.442,138.295,0,0,0,-81.156,84.144,1,-1,0,0,0,0,0,0,0,0,0,-1,0,0,0,0,0,0,0
44716730,44.6,25.2,0,0,0,-94.7,0,0,0,0,-1,0,0.0058,0,0.2612,0,-39217,40677,179.516,0,24,0.002,0,44716659,0.0058,0,0.2612,0,2.415,136.756,0,0,0,-81.156,84.144,1,-1,0,0,0,0,0,0,0,0,0,-1,0,0,0,0,0,0,0
44716798,44.7,24.8,0,0,0,-90.8,0,0,0,0,0,0,0.0058,0,0.2612,0,-39217,40677,179.338,0,24,0.003,0,44716731,0.0058,0,0.2612,0,2.455,138.988,0,0,0,-81.158,84.179,1,-1,0,0,0,0,0,0,0,0,0,-1,0,0,0,0,0,0,0
44716846,44.8,25,0,0,0,-90.4,0,0,0,0,-1,0,0.0058,0,0.2612,0,-39217,40677,178.995,0,24,0.002,-0.001,44716798,0.0058,0,0.2612,0,2.485,140.68,0,0,0,-81.158,84.179,1,-1,0,0,0,0,0,0,0,0,0,-1,0,0,0,0,0,0,0
44716910,44.9,25.3,0,0,0,-94.2,0,0,0,0,-1,0,0.0058,0,0.2612,0,-39217,40677,178.165,0,24,0.003,0,44716846,0.0058,0,0.2612,0,2.434,137.795,0,0,0,-81.158,84.179,1,-1,0,0,0,0,0,0,0,0,0,-1,0,0,0,0,0,0,0
44716968,44.5,25.3,0,0,0,-93.6,0,0,0,0,-1,0,0.0058,0,0.2612,0,-39217,40677,178.083,0,24,0.002,0,44716910,0.0058,0,0.2612,0,2.406,136.218,0,0,0,-81.158,84.179,1,-1,0,0,0,0,0,0,0,0,0,-1,0,0,0,0,0,0,0
44717029,44.7,25.2,0,0,0,-96.6,0,0,0,0,0,0,0.0058,0,0.2612,0,-39217,40677,178.604,0,24,0.003,0,44716968,0.0058,0,0.2612,0,2.408,136.372,0,0,0,-81.158,84.179,1,-1,0,0,0,0,0,0,0,0,0,-1,0,0,0,0,0,0,0
44717108,44.3,25,0,0,0,-95.6,0,0,0,0,0,0,0.0058,0,0.2612,0,-39217,40677,178.246,0,24,0.002,0,44717030,0.0058,0,0.2612,0,2.432,137.68,0,0,0,-81.158,84.179,1,-1,0,0,0,0,0,0,0,0,0,-1,0,0,0,0,0,0,0
44717155,44.7,25.1,0,0,0,-94.8,0,0,0,0,0,0,0.0058,0,0.2612,0,-39217,40677,178.142,0,24,0.002,0,44717108,0.0058,0,0.2612,0,2.478,140.295,0,0,0,-81.158,84.179,1,-1,0,0,0,0,0,0,0,0,0,-1,0,0,0,0,0,0,0
44717214,43.8,25.2,0,0,0,-93.8,0,0,0,0,0,0,0.0058,0,0.2612,0,-39217,40677,177.932,0,24,0.003,0,44717155,0.0058,0,0.2612,0,2.406,136.218,0,0,0,-81.158,84.179,1,-1,0,0,0,0,0,0,0,0,0,-1,0,0,0,0,0,0,0
44717278,44.3,25.1,0,0,0,-93.1,0,0,0,0,0,0,0.0058,0,0.2612,0,-39217,40677,178.186,0,24,0.003,0,44717214,0.0058,0,0.2612,0,2.448,138.603,0,0,0,-81.158,84.179,1,-1,0,0,0,0,0,0,0,0,0,-1,0,0,0,0,0,0,0
44717333,44.9,25.2,0,0,0,-94.9,0,0,0,0,0,0,0.0058,0,0.2612,0,-39217,40677,177.903,0,24,0.003,0,44717279,0.0058,0,0.2612,0,2.48,140.411,0,0,0,-81.158,84.179,1,-1,0,0,0,0,0,0,0,0,0,-1,0,0,0,0,0,0,0
44717400,44.7,25.1,0,0,0,-93.4,0,0,0,0,0,0,0.0058,0,0.2612,0,-39217,40677,178.123,0,24,0.003,0,44717333,0.0058,0,0.2612,0,2.411,136.487,0,0,0,-81.158,84.179,1,-1,0,0,0,0,0,0,0,0,0,-1,0,0,0,0,0,0,0
44717476,43.9,25.3,0,0,0,-94.9,0,0,0,0,0,0,0.0058,0,0.2612,0,-39217,40677,178.516,0,24,0.003,0,44717400,0.0058,0,0.2612,0,2.437,137.987,0,0,0,-81.158,84.179,1,-1,0,0,0,0,0,0,0,0,0,-1,0,0,0,0,0,0,0
44717524,44.7,25.3,0,0,0,-95.6,0,0,0,0,0,0,0.0058,0,0.2612,0,-39217,40677,177.969,0,24,0.003,0,44717476,0.0058,0,0.2612,0,2.467,139.68,0,0,0,-81.158,84.179,1,-1,0,0,0,0,0,0,0,0,0,-1,0,0,0,0,0,0,0
44717580,45.1,25,0,0,0,-94.5,0,0,0,0,1,0,0.0058,0,0.2612,0,-39217,40677,178.77,0,24,0.003,0.001,44717524,0.0058,0,0.2612,0,2.445,138.449,0,0,0,-81.158,84.179,1,-1,0,0,0,0,0,0,0,0,0,-1,0,0,0,0,0,0,0
44717652,45.3,24.9,0,0,0,-91.4,0,0,0,0,1,0,0.0058,0,0.2612,0,-39217,40677,179.522,0,24,0.003,0,44717581,0.0058,0,0.2612,0,2.43,137.564,0,0,0,-81.158,84.179,1,-1,0,0,0,0,0,0,0,0,0,-1,0,0,0,0,0,0,0
44717718,45.1,24.9,0,0,0,-90.1,0,0,0,0,1,0,0.0058,0,0.2612,0,-39216,40678,180.212,0,24,0.003,0,44717653,0.0058,0,0.2612,0,2.432,137.68,0,0,0,-81.158,84.179,1,-1,0,0,0,0,0,0,0,0,0,-1,0,0,0,0,0,0,0
44717769,45.3,25.2,0,0,0,-90.1,0,0,0,0,0,0,0.0058,0,0.2612,0,-39216,40684,180.204,0,24,0.002,0,44717719,0.0058,0,0.2612,0,2.413,136.641,0,0,0,-81.156,84.181,1,-1,0,0,0,0,0,0,0,0,0,-1,0,0,0,0,0,0,0
44717827,45.6,24.7,0,0,0,-89,0,0,0,0,0,0,0.0058,0,0.2612,0,-39217,40691,179.497,0,24,0.002,0,44717769,0.0058,0,0.2612,0,2.442,138.257,0,0,0,-81.156,84.193,1,-1,0,0,0,0,0,0,0,0,0,-1,0,0,0,0,0,0,0
44717900,44.9,24.8,0,0,0,-88.3,0,0,0,0,-1,0,0.0058,0,0.2612,0,-39217,40691,179.251,0,24,0.002,0,44717828,0.0058,0,0.2612,0,2.43,137.564,0,0,0,-81.158,84.208,1,-1,0,0,0,0,0,0,0,0,0,-1,0,0,0,0,0,0,0
44717967,44.8,24.9,0,0,0,-89.7,0,0,0,0,0,0,0.0058,0,0.2612,0,-39217,40691,178.88,0,24,0.002,0,44717900,0.0058,0,0.2612,0,2.421,137.103,0,0,0,-81.158,84.208,1,-1,0,0,0,0,0,0,0,0,0,-1,0,0,0,0,0,0,0
44718037,45.5,25,0,0,0,-89.9,0,0,0,0,0,0,0.0058,0,0.2612,0,-39217,40691,179.025,0,24,0.002,0,44717967,0.0058,0,0.2612,0,2.418,136.91,0,0,0,-81.158,84.208,1,-1,0,0,0,0,0,0,0,0,0,-1,0,0,0,0,0,0,0
44718110,44,25,0,0,0,-89.7,0,0,0,0,0,0,0.0058,0,0.2612,0,-39217,40691,179.033,0,24,0.003,0,44718037,0.0058,0,0.2612,0,2.419,136.987,0,0,0,-81.158,84.208,1,-1,0,0,0,0,0,0,0,0,0,-1,0,0,0,0,0,0,0
44718179,45,25,0,0,0,-88.9,0,0,0,0,0,0,0.0058,0,0.2612,0,-39217,40691,179.209,0,24,0.003,0,44718110,0.0058,0,0.2612,0,2.486,140.757,0,0,0,-81.158,84.208,1,-1,0,0,0,0,0,0,0,0,0,-1,0,0,0,0,0,0,0
44718238,43.9,24.8,0,0,0,-88.9,0,0,0,0,0,0,0.0058,0,0.2612,0,-39217,40691,179.384,0,24,0.003,0,44718179,0.0058,0,0.2612,0,2.421,137.103,0,0,0,-81.158,84.208,1,-1,0,0,0,0,0,0,0,0,0,-1,0,0,0,0,0,0,0
44718299,44,25.1,0,0,0,-90.4,0,0,0,0,0,0,0.0058,0,0.2612,0,-39217,40691,179.353,0,24,0.003,0,44718238,0.0058,0,0.2612,0,2.471,139.911,0,0,0,-81.158,84.208,1,-1,0,0,0,0,0,0,0,0,0,-1,0,0,0,0,0,0,0
44718370,45.4,25.1,0,0,0,-91.3,0,0,0,0,0,0,0.0058,0,0.2612,0,-39217,40691,179.331,0,24,0.002,0,44718299,0.0058,0,0.2612,0,2.471,139.911,0,0,0,-81.158,84.208,1,-1,0,0,0,0,0,0,0,0,0,-1,0,0,0,0,0,0,0
44718428,44.4,24.8,0,0,0,-90.6,0,0,0,0,0,0,0.0058,0,0.2612,0,-39217,40691,179.445,0,24,0.002,0,44718370,0.0058,0,0.2612,0,2.451,138.757,0,0,0,-81.158,84.208,1,-1,0,0,0,0,0,0,0,0,0,-1,0,0,0,0,0,0,0
44718485,45.2,24.8,0,0,0,-90,0,0,0,0,1,0,0.0058,0,0.2612,0,-39216,40692,180.237,0,24,0.003,0,44718428,0.0058,0,0.2612,0,2.423,137.18,0,0,0,-81.158,84.208,1,-1,0,0,0,0,0,0,0,0,0,-1,0,0,0,0,0,0,0
44718546,45.5,25.1,0,0,0,-92.6,0,0,0,0,0,0,0.0058,0,0.2612,0,-39216,40698,180.569,0,24,0.003,0,44718486,0.0058,0,0.2612,0,2.419,136.949,0,0,0,-81.156,84.21,1,-1,0,0,0,0,0,0,0,0,0,-1,0,0,0,0,0,0,0
44718618,44.5,24.9,0,0,0,-91.2,0,0,0,0,0,0,0.0058,0,0.2612,0,-39216,40698,180.55,0,24,0.003,0,44718549,0.0058,0,0.2612,0,2.436,137.949,0,0,0,-81.156,84.222,1,-1,0,0,0,0,0,0,0,0,0,-1,0,0,0,0,0,0,0
44718690,44.7,25.1,0,0,0,-93.3,0,0,0,0,0,0,0.0058,0,0.2612,0,-39216,40698,180.77,0,24,0.003,0,44718618,0.0058,0,0.2612,0,2.484,140.642,0,0,0,-81.156,84.222,1,-1,0,0,0,0,0,0,0,0,0,-1,0,0,0,0,0,0,0
44718748,45.1,24.9,0,0,0,-92.3,0,0,0,0,0,0,0.0058,0,0.2612,0,-39216,40698,180.189,0,24,0.002,0,44718690,0.0058,0,0.2612,0,2.409,136.41,0,0,0,-81.156,84.222,1,-1,0,0,0,0,0,0,0,0,0,-1,0,0,0,0,0,0,0
44718800,45.1,24.7,0,0,0,-90.3,0,0,0,0,0,0,0.0058,0,0.2612,0,-39216,40700,180.175,0,24,0.003,0,44718749,0.0058,0,0.2612,0,2.431,137.641,0,0,0,-81.156,84.222,1,-1,0,0,0,0,0,0,0,0,0,-1,0,0,0,0,0,0,0
44718858,44.4,24.6,0,0,0,-88.3,0,0,0,0,0,0,0.0058,0,0.2612,0,-39216,40702,180.292,0,24,0.003,0,44718801,0.0058,0,0.2612,0,2.412,136.564,0,0,0,-81.156,84.227,1,-1,0,0,0,0,0,0,0,0,0,-1,0,0,0,0,0,0,0
44718922,44,24.9,0,0,0,-88.8,0,0,0,0,0,0,0.0058,0,0.2612,0,-39216,40714,180.062,0,24,0.003,0,44718859,0.0058,0,0.2612,0,2.405,136.179,0,0,0,-81.156,84.231,1,-1,0,0,0,0,0,0,0,0,0,-1,0,0,0,0,0,0,0
44718985,44.2,24.8,0,0,0,-87.9,0,0,0,0,-1,0,0.0058,0,0.2612,0,-39217,40725,179.318,0,24,0.003,0,44718922,0.0058,0,0.2612,0,2.472,139.988,0,0,0,-81.156,84.256,1,-1,0,0,0,0,0,0,0,0,0,-1,0,0,0,0,0,0,0
44719043,45.4,25.1,0,0,0,-88.7,0,0,0,0,-1,0,0.0058,0,0.2612,0,-39217,40725,179.076,0,24,0.003,0,44718985,0.0058,0,0.2612,0,2.479,140.372,0,0,0,-81.158,84.278,1,-1,0,0,0,0,0,0,0,0,0,-1,0,0,0,0,0,0,0
44719104,44.4,25,0,0,0,-90.3,0,0,0,0,-1,0,0.0058,0,0.2612,0,-39217,40725,178.713,0,24,0.002,0,44719043,0.0058,0,0.2612,0,2.448,138.603,0,0,0,-81.158,84.278,1,-1,0,0,0,0,0,0,0,0,0,-1,0,0,0,0,0,0,0
44719167,44.9,25,0,0,0,-92.8,0,0,0,0,0,0,0.0058,0,0.2612,0,-39217,40725,178.88,0,24,0.003,0,44719105,0.0058,0,0.2612,0,2.447,138.526,0,0,0,-81.158,84.278,1,-1,0,0,0,0,0,0,0,0,0,-1,0,0,0,0,0,0,0
44719231,45.3,24.4,0,0,0,-83.3,0,0,0,0,0,0,0.0058,0,0.2612,0,-39217,40725,179.019,0,24,0.003,0,44719168,0.0058,0,0.2612,0,2.413,136.641,0,0,0,-81.158,84.278,1,-1,0,0,0,0,0,0,0,0,0,-1,0,0,0,0,0,0,0
44719307,45.1,24.9,0,0,0,-77.7,0,0,0,0,1,0,0.0058,0,0.2612,0,-39217,40725,179.545,0,24,0.003,0,44719231,0.0058,0,0.2612,0,2.43,137.603,0,0,0,-81.158,84.278,1,-1,0,0,0,0,0,0,0,0,0,-1,0,0,0,0,0,0,0
44719362,44.7,25.2,0,0,0,-79.7,0,0,0,0,1,0,0.0058,0,0.2612,0,-39217,40725,179.584,0,24,0.003,0,44719307,0.0058,0,0.2612,0,2.414,136.679,0,0,0,-81.158,84.278,1,-1,0,0,0,0,0,0,0,0,0,-1,0,0,0,0,0,0,0
44719436,43.9,24.8,0,0,0,-85.6,0,0,0,0,0,0,0.0058,0,0.2612,0,-39217,40725,179.624,0,24,0.003,0,44719362,0.0058,0,0.2612,0,2.48,140.411,0,0,0,-81.158,84.278,1,-1,0,0,0,0,0,0,0,0,0,-1,0,0,0,0,0,0,0
44719510,45.3,25.3,0,0,0,-91.4,0,0,0,0,0,0,0.0058,0,0.2612,0,-39217,40725,179.301,0,24,0.002,0,44719436,0.0058,0,0.2612,0,2.453,138.872,0,0,0,-81.158,84.278,1,-1,0,0,0,0,0,0,0,0,0,-1,0,0,0,0,0,0,0
44719560,45.3,25.3,0,0,0,-93.3,0,0,0,0,0,0,0.0058,0,0.2612,0,-39217,40725,179.418,0,24,0.003,0,44719510,0.0058,0,0.2612,0,2.421,137.103,0,0,0,-81.158,84.278,1,-1,0,0,0,0,0,0,0,0,0,-1,0,0,0,0,0,0,0
44719622,44.9,24.9,0,0,0,-92.9,0,0,0,0,0,0,0.0058,0,0.2612,0,-39217,40743,179.674,0,24,0.003,0,44719561,0.0058,0,0.2612,0,2.426,137.372,0,0,0,-81.158,84.278,1,-1,0,0,0,0,0,0,0,0,0,-1,0,0,0,0,0,0,0
44719679,45.6,25,0,0,0,-91.7,0,0,0,0,0,0,0.0058,0,0.2612,0,-39217,40743,179.714,0,24,0.003,0,44719622,0.0058,0,0.2612,0,2.409,136.41,0,0,0,-81.158,84.316,1,-1,0,0,0,0,0,0,0,0,0,-1,0,0,0,0,0,0,0
44719740,44.6,25.2,0,0,0,-92.3,0,0,0,0,0,0,0.0058,0,0.2612,0,-39217,40743,179.647,0,24,0.003,0,44719679,0.0058,0,0.2612,0,2.453,138.872,0,0,0,-81.158,84.316,1,-1,0,0,0,0,0,0,0,0,0,-1,0,0,0,0,0,0,0
44719806,45.2,25.1,0,0,0,-94.8,0,0,0,0,0,0,0.0058,0,0.2612,0,-39217,40743,179.583,0,24,0.003,0,44719740,0.0058,0,0.2612,0,2.433,137.757,0,0,0,-81.158,84.316,1,-1,0,0,0,0,0,0,0,0,0,-1,0,0,0,0,0,0,0
44719856,45.2,25.1,0,0,0,-94.4,0,0,0,0,0,0,0.0058,0,0.2612,0,-39217,40743,179.649,0,24,0.003,0,44719807,0.0058,0,0.2612,0,2.418,136.91,0,0,0,-81.158,84.316,1,-1,0,0,0,0,0,0,0,0,0,-1,0,0,0,0,0,0,0
44719915,45.1,24.5,0,0,0,-89.5,0,0,0,0,0,0,0.0058,0,0.2612,0,-39217,40753,179.903,0,24,0.002,0,44719856,0.0058,0,0.2612,0,2.439,138.103,0,0,0,-81.158,84.316,1,-1,0,0,0,0,0,0,0,0,0,-1,0,0,0,0,0,0,0
44719980,44.9,24.8,0,0,0,-90.3,0,0,0,0,0,0,0.0058,0,0.2612,0,-39216,40766,180.032,0,24,0.003,0,44719915,0.0058,0,0.2612,0,2.433,137.757,0,0,0,-81.158,84.336,1,-1,0,0,0,0,0,0,0,0,0,-1,0,0,0,0,0,0,0
44720038,44.9,25,0,0,0,-92.9,0,0,0,0,1,0,0.0058,0,0.2612,0,-39216,40782,180.693,0,24,0.003,0,44719980,0.0058,0,0.2612,0,2.449,138.641,0,0,0,-81.156,84.363,1,-1,0,0,0,0,0,0,0,0,0,-1,0,0,0,0,0,0,0
44720105,43.8,24.7,0,0,0,-89.4,0,0,0,0,0,0,0.0058,0,0.2612,0,-39216,40782,180.119,0,24,0.002,0,44720038,0.0058,0,0.2612,0,2.418,136.91,0,0,0,-81.156,84.396,1,-1,0,0,0,0,0,0,0,0,0,-1,0,0,0,0,0,0,0
44720177,44.2,24.9,0,0,0,-78.6,0,0,0,0,0,0,0.0058,0,0.2612,0,-39216,40782,180.341,0,24,0.003,0,44720105,0.0058,0,0.2612,0,2.444,138.372,0,0,0,-81.156,84.396,1,-1,0,0,0,0,0,0,0,0,0,-1,0,0,0,0,0,0,0
44720251,44.1,25.2,0,0,0,-86.8,0,0,0,0,0,0,0.0058,0,0.2612,0,-39216,40782,180.168,0,24,0.003,0,44720177,0.0058,0,0.2612,0,2.468,139.757,0,0,0,-81.156,84.396,1,-1,0,0,0,0,0,0,0,0,0,-1,0,0,0,0,0,0,0
44720318,45.3,25.2,0,0,0,-91.4,0,0,0,0,0,0,0.0058,0,0.2612,0,-39216,40782,180.062,0,24,0.003,0,44720251,0.0058,0,0.2612,0,2.465,139.565,0,0,0,-81.156,84.396,1,-1,0,0,0,0,0,0,0,0,0,-1,0,0,0,0,0,0,0
44720387,43.9,25.3,0,0,0,-94.7,0,0,0,0,-1,0,0.0058,0,0.2612,0,-39217,40783,179.347,0,24,0.003,0,44720319,0.0058,0,0.2612,0,2.433,137.757,0,0,0,-81.156,84.396,1,-1,0,0,0,0,0,0,0,0,0,-1,0,0,0,0,0,0,0
44720459,45.4,24.9,0,0,0,-94.7,0,0,0,0,-1,0,0.0058,0,0.2612,0,-39217,40783,178.768,0,24,0.003,0,44720387,0.0058,0,0.2612,0,2.46,139.295,0,0,0,-81.158,84.398,1,-1,0,0,0,0,0,0,0,0,0,-1,0,0,0,0,0,0,0
44720529,44.2,24.8,0,0,0,-89.6,0,0,0,0,0,0,0.0058,0,0.2612,0,-39217,40783,178.647,0,24,0.003,0,44720459,0.0058,0,0.2612,0,2.423,137.18,0,0,0,-81.158,84.398,1,-1,0,0,0,0,0,0,0,0,0,-1,0,0,0,0,0,0,0
44720602,44.6,24.8,0,0,0,-89.2,0,0,0,0,1,0,0.0058,0,0.2612,0,-39217,40783,179.205,0,24,0.003,0,44720529,0.0058,0,0.2612,0,2.433,137.757,0,0,0,-81.158,84.398,1,-1,0,0,0,0,0,0,0,0,0,-1,0,0,0,0,0,0,0
44720669,45.2,24.9,0,0,0,-88.7,0,0,0,0,0,0,0.0058,0,0.2612,0,-39217,40783,178.741,0,24,0.002,0,44720603,0.0058,0,0.2612,0,2.466,139.603,0,0,0,-81.158,84.398,1,-1,0,0,0,0,0,0,0,0,0,-1,0,0,0,0,0,0,0
44720734,45.5,25.1,0,0,0,-89.4,0,0,0,0,-1,0,0.0058,0,0.2612,0,-39217,40783,178.323,0,24,0.002,0,44720670,0.0058,0,0.2612,0,2.404,136.102,0,0,0,-81.158,84.398,1,-1,0,0,0,0,0,0,0,0,0,-1,0,0,0,0,0,0,0
44720799,43.8,25,0,0,0,-84,0,0,0,0,1,0,0.0058,0,0.2612,0,-39217,40783,179.06,0,24,0.003,0,44720734,0.0058,0,0.2612,0,2.435,137.872,0,0,0,-81.158,84.398,1,-1,0,0,0,0,0,0,0,0,0,-1,0,0,0,0,0,0,0
44720870,44,24.8,0,0,0,-89.5,0,0,0,0,0,0,0.0058,0,0.2612,0,-39217,40783,179.263,0,24,0.003,0,44720799,0.0058,0,0.2612,0,2.445,138.449,0,0,0,-81.158,84.398,1,-1,0,0,0,0,0,0,0,0,0,-1,0,0,0,0,0,0,0
44720923,45.1,25.3,0,0,0,-91.6,0,0,0,0,0,0,0.0058,0,0.2612,0,-39217,40783,179.139,0,24,0.003,0,44720871,0.0058,0,0.2612,0,2.459,139.218,0,0,0,-81.158,84.398,1,-1,0,0,0,0,0,0,0,0,0,-1,0,0,0,0,0,0,0
44720989,43.9,25.2,0,0,0,-92.9,0,0,0,0,0,0,0.0058,0,0.2612,0,-39217,40783,179.064,0,24,0.003,0,44720923,0.0058,0,0.2612,0,2.418,136.91,0,0,0,-81.158,84.398,1,-1,0,0,0,0,0,0,0,0,0,-1,0,0,0,0,0,0,0
44721060,44.2,25.4,0,0,0,-95.1,0,0,0,0,0,0,0.0058,0,0.2612,0,-39217,40783,179.11,0,24,0.002,0,44720990,0.0058,0,0.2612,0,2.458,139.18,0,0,0,-81.158,84.398,1,-1,0,0,0,0,0,0,0,0,0,-1,0,0,0,0,0,0,0
44721105,43.9,25.2,0,0,0,-95.2,0,0,0,0,0,0,0.0058,0,0.2612,0,-39217,40783,179.258,0,24,0.003,0,44721060,0.0058,0,0.2612,0,2.468,139.757,0,0,0,-81.158,84.398,1,-1,0,0,0,0,0,0,0,0,0,-1,0,0,0,0,0,0,0
44721162,43.9,25.1,0,0,0,-96.8,0,0,0,0,0,0,0.0058,0,0.2612,0,-39217,40783,179.283,0,24,0.003,0,44721105,0.0058,0,0.2612,0,2.451,138.795,0,0,0,-81.158,84.398,1,-1,0,0,0,0,0,0,0,0,0,-1,0,0,0,0,0,0,0
44721226,45.5,24.8,0,0,0,-93.6,0,0,0,0,1,0,0.0058,0,0.2612,0,-39216,40800,180.083,0,24,0.003,0,44721163,0.0058,0,0.2612,0,2.46,139.295,0,0,0,-81.158,84.398,1,-1,0,0,0,0,0,0,0,0,0,-1,0,0,0,0,0,0,0
44721288,45.4,24.9,0,0,0,-91.9,0,0,0,0,0,0,0.0058,0,0.2612,0,-39217,40815,179.878,0,24,0.003,0,44721226,0.0058,0,0.2612,0,2.452,138.834,0,0,0,-81.156,84.434,1,-1,0,0,0,0,0,0,0,0,0,-1,0,0,0,0,0,0,0
44721358,45.4,24.6,0,0,0,-90.8,0,0,0,0,0,0,0.0058,0,0.2612,0,-39217,40837,179.971,0,24,0.003,0,44721288,0.0058,0,0.2612,0,2.449,138.641,0,0,0,-81.158,84.465,1,-1,0,0,0,0,0,0,0,0,0,-1,0,0,0,0,0,0,0
44721431,44.8,25.1,0,0,0,-91.3,0,0,0,0,0,0,0.0058,0,0.2612,0,-39217,40841,179.782,0,24,0.002,0,44721359,0.0058,0,0.2612,0,2.419,136.987,0,0,0,-81.158,84.51,1,-1,0,0,0,0,0,0,0,0,0,-1,0,0,0,0,0,0,0
44721518,43.8,24.9,0,0,0,-90.5,0,0,0,0,1,0,0.0058,0,0.2612,0,-39216,40868,180.573,0,24,0.003,0,44721431,0.0058,0,0.2612,0,2.455,138.988,0,0,0,-81.158,84.518,1,-1,0,0,0,0,0,0,0,0,0,-1,0,0,0,0,0,0,0
44721572,44.8,25.3,0,0,0,-92,0,0,0,0,0,0,0.0058,0,0.2612,0,-39216,40870,180.55,0,24,0.003,0,44721518,0.0058,0,0.2612,0,2.454,138.949,0,0,0,-81.156,84.574,1,-1,0,0,0,0,0,0,0,0,0,-1,0,0,0,0,0,0,0
44721632,44.1,25.1,0,0,0,-92.9,0,0,0,0,0,0,0.0058,0,0.2612,0,-39216,40870,180.154,0,24,0.003,0,44721572,0.0058,0,0.2612,0,2.463,139.449,0,0,0,-81.156,84.578,1,-1,0,0,0,0,0,0,0,0,0,-1,0,0,0,0,0,0,0
44721705,45.2,25,0,0,0,-92.7,0,0,0,0,0,0,0.0058,0,0.2612,0,-39217,40871,179.99,0,24,0.003,0,44721632,0.0058,0,0.2612,0,2.473,140.026,0,0,0,-81.156,84.578,1,-1,0,0,0,0,0,0,0,0,0,-1,0,0,0,0,0,0,0
44721765,44.4,25,0,0,0,-92.2,0,0,0,0,0,0,0.0058,0,0.2612,0,-39217,40925,179.881,0,24,0.002,0,44721705,0.0058,0,0.2612,0,2.457,139.103,0,0,0,-81.158,84.58,1,-1,0,0,0,0,0,0,0,0,0,-1,0,0,0,0,0,0,0
44721812,45.2,25.2,0,0,0,-92.7,0,0,0,0,0,0,0.0058,0,0.2612,0,-39217,40925,179.747,0,24,0.003,0,44721765,0.0058,0,0.2612,0,2.448,138.603,0,0,0,-81.158,84.692,1,-1,0,0,0,0,0,0,0,0,0,-1,0,0,0,0,0,0,0
44721876,45.2,25.2,0,0,0,-94,0,0,0,0,-1,0,0.0058,0,0.2612,0,-39217,40925,179.131,0,24,0.002,0,44721812,0.0058,0,0.2612,0,2.421,137.064,0,0,0,-81.158,84.692,1,-1,0,0,0,0,0,0,0,0,0,-1,0,0,0,0,0,0,0
44721953,45.2,25.3,0,0,0,-93.5,0,0,0,0,0,0,0.0058,0,0.2612,0,-39217,40925,179.357,0,24,0.002,0,44721877,0.0058,0,0.2612,0,2.419,136.949,0,0,0,-81.158,84.692,1,-1,0,0,0,0,0,0,0,0,0,-1,0,0,0,0,0,0,0
44722030,44.6,25.2,0,0,0,-93.4,0,0,0,0,0,0,0.0058,0,0.2612,0,-39217,40925,179.521,0,24,0.002,0,44721953,0.0058,0,0.2612,0,2.419,136.987,0,0,0,-81.158,84.692,1,-1,0,0,0,0,0,0,0,0,0,-1,0,0,0,0,0,0,0
44722101,45.1,25.1,0,0,0,-92.8,0,0,0,0,0,0,0.0058,0,0.2612,0,-39217,40955,179.992,0,24,0.003,0,44722030,0.0058,0,0.2612,0,2.41,136.449,0,0,0,-81.158,84.692,1,-1,0,0,0,0,0,0,0,0,0,-1,0,0,0,0,0,0,0
44722171,43.7,25,0,0,0,-93.1,0,0,0,0,0,0,0.0058,0,0.2612,0,-39216,40962,180.431,0,24,0.003,0,44722102,0.0058,0,0.2612,0,2.444,138.372,0,0,0,-81.158,84.754,1,-1,0,0,0,0,0,0,0,0,0,-1,0,0,0,0,0,0,0
44722239,45,25,0,0,0,-92.3,0,0,0,0,2,0,0.0058,0,0.2612,0,-39216,40962,181.285,0,24,0.003,0,44722171,0.0058,0,0.2612,0,2.426,137.372,0,0,0,-81.156,84.769,1,-1,0,0,0,0,0,0,0,0,0,-1,0,0,0,0,0,0,0
44722297,44.6,25,0,0,0,-92.9,0,0,0,0,0,0,0.0058,0,0.2612,0,-39216,40962,181.115,0,24,0.003,0,44722239,0.0058,0,0.2612,0,2.404,136.141,0,0,0,-81.156,84.769,1,-1,0,0,0,0,0,0,0,0,0,-1,0,0,0,0,0,0,0
44722359,44.6,25,0,0,0,-91.6,0,0,0,0,-1,0,0.0058,0,0.2612,0,-39216,40962,180.282,0,24,0.002,0,44722298,0.0058,0,0.2612,0,2.413,136.641,0,0,0,-81.156,84.769,1,-1,0,0,0,0,0,0,0,0,0,-1,0,0,0,0,0,0,0
44722402,44.4,24.6,0,0,0,-90.2,0,0,0,0,0,0,0.0058,0,0.2612,0,-39216,40962,180.513,0,24,0.002,0,44722360,0.0058,0,0.2612,0,2.411,136.487,0,0,0,-81.156,84.769,1,-1,0,0,0,0,0,0,0,0,0,-1,0,0,0,0,0,0,0
44722476,44.2,25,0,0,0,-91.2,0,0,0,0,0,0,0.0058,0,0.2612,0,-39216,40962,180.932,0,24,0.002,0,44722403,0.0058,0,0.2612,0,2.424,137.256,0,0,0,-81.156,84.769,1,-1,0,0,0,0,0,0,0,0,0,-1,0,0,0,0,0,0,0
44722532,44.8,24.8,0,0,0,-90.9,0,0,0,0,0,0,0.0058,0,0.2612,0,-39216,40962,180.921,0,24,0.003,0,44722477,0.0058,0,0.2612,0,2.457,139.103,0,0,0,-81.156,84.769,1,-1,0,0,0,0,0,0,0,0,0,-1,0,0,0,0,0,0,0
44722600,44.8,25,0,0,0,-90.7,0,0,0,0,2,0,0.0058,0,0.2612,0,-39216,40962,182.198,0,24,0.002,0,44722533,0.0058,0,0.2612,0,2.426,137.372,0,0,0,-81.156,84.769,1,-1,0,0,0,0,0,0,0,0,0,-1,0,0,0,0,0,0,0
44722674,43.8,24.8,0,0,0,-89.8,0,0,0,0,2,0,0.0058,0,0.2612,0,-39216,40962,182.682,0,24,0.002,0,44722600,0.0058,0,0.2612,0,2.42,137.026,0,0,0,-81.156,84.769,1,-1,0,0,0,0,0,0,0,0,0,-1,0,0,0,0,0,0,0
44722724,45.3,24.7,0,0,0,-90.4,0,0,0,0,0,0,0.0058,0,0.2612,0,-39216,40962,182.116,0,24,0.002,0,44722674,0.0058,0,0.2612,0,2.456,139.064,0,0,0,-81.156,84.769,1,-1,0,0,0,0,0,0,0,0,0,-1,0,0,0,0,0,0,0
44722794,45.4,25.2,0,0,0,-93,0,0,0,0,0,0,0.0058,0,0.2612,0,-39216,40962,182.47,0,24,0.003,0,44722724,0.0058,0,0.2612,0,2.406,136.256,0,0,0,-81.156,84.769,1,-1,0,0,0,0,0,0,0,0,0,-1,0,0,0,0,0,0,0
44722868,44.4,25,0,0,0,-93.1,0,0,0,0,-1,0,0.0058,0,0.2612,0,-39216,40962,181.612,0,24,0.003,0,44722794,0.0058,0,0.2612,0,2.423,137.18,0,0,0,-81.156,84.769,1,-1,0,0,0,0,0,0,0,0,0,-1,0,0,0,0,0,0,0
44722937,44.6,24.9,0,0,0,-91.8,0,0,0,0,-1,0,0.0058,0,0.2612,0,-39216,40962,180.888,0,24,0.003,0,44722868,0.0058,0,0.2612,0,2.453,138.911,0,0,0,-81.156,84.769,1,-1,0,0,0,0,0,0,0,0,0,-1,0,0,0,0,0,0,0
44723000,45.1,25,0,0,0,-90.9,0,0,0,0,0,0,0.0058,0,0.2612,0,-39216,40962,181.003,0,24,0.003,0,44722937,0.0058,0,0.2612,0,2.406,136.218,0,0,0,-81.156,84.769,1,-1,0,0,0,0,0,0,0,0,0,-1,0,0,0,0,0,0,0
