ms_today,input_voltage,temp_mos_max,temp_mos_1,temp_mos_2,temp_mos_3,temp_motor,current_motor,current_in,d_axis_current,q_axis_current,erpm,duty_cycle,amp_hours_used,amp_hours_charged,watt_hours_used,watt_hours_charged,tachometer,tachometer_abs,encoder_position,fault_code,vesc_id,d_axis_voltage,q_axis_voltage,ms_today_setup,amp_hours_setup,amp_hours_charged_setup,watt_hours_setup,watt_hours_charged_setup,battery_level,battery_wh_tot,current_in_setup,current_motor_setup,speed_meters_per_sec,tacho_meters,tacho_abs_meters,num_vescs,ms_today_imu,roll,pitch,yaw,accX,accY,accZ,gyroX,gyroY,gyroZ,gnss_posTime,gnss_lat,gnss_lon,gnss_alt,gnss_gVel,gnss_vVel,gnss_hAcc,gnss_vAcc
65703322,24.5,26.4,0,0,0,-88.8,-0.03,0,0,0,0,0,0.17,0,4.0734,0,266983,274563,0,0,24,0,0,-1,0,0,0,0,0,0,0,0,0,0,0,0,-1,0,0,0,0,0,0,0,0,0,-1,0,0,0,0,0,0,0
65703434,25.4,26.4,0,0,0,-87.4,0.01,0,0,0,0,0,0.17,0,4.0734,0,266983,274563,0,0,24,0,0,65703432,0.17,0,4.0734,0,1.576,89.249,0,-0.2,0,552.511,568.197,1,-1,0,0,0,0,0,0,0,0,0,-1,0,0,0,0,0,0,0
65703473,24.5,26.2,0,0,0,-85.8,0,0,0,0,0,0,0.17,0,4.0734,0,266983,274563,0,0,24,0,0,65703432,0.17,0,4.0734,0,1.576,89.249,0,-0.2,0,552.511,568.197,1,-1,0,0,0,0,0,0,0,0,0,-1,0,0,0,0,0,0,0
65703533,24.7,26.4,0,0,0,-87.4,0.08,0,0,0,0,0,0.17,0,4.0734,0,266983,274563,0,0,24,0,0,65703473,0.17,0,4.0734,0,1.543,87.364,0,0.15,0,552.511,568.197,1,-1,0,0,0,0,0,0,0,0,0,-1,0,0,0,0,0,0,0
65703598,24.9,26.3,0,0,0,-86.5,-0.04,0,0,0,0,0,0.17,0,4.0734,0,266983,274563,0,0,24,0,0,65703533,0.17,0,4.0734,0,1.56,88.326,0,0.06,0,552.511,568.197,1,-1,0,0,0,0,0,0,0,0,0,-1,0,0,0,0,0,0,0
65703670,24.5,26.5,0,0,0,-86.4,-0.02,0,0,0,0,0,0.17,0,4.0734,0,266983,274563,0,0,24,0,0,65703598,0.17,0,4.0734,0,1.543,87.364,0,0.65,0,552.511,568.197,1,-1,0,0,0,0,0,0,0,0,0,-1,0,0,0,0,0,0,0
65703790,24.7,26.3,0,0,0,-85.8,0,0,0,0,0,0,0.17,0,4.0734,0,266983,274563,0,0,24,0,0,65703671,0.17,0,4.0734,0,1.573,89.057,0,-0.78,0,552.511,568.197,1,-1,0,0,0,0,0,0,0,0,0,-1,0,0,0,0,0,0,0
65703865,24.4,26.3,0,0,0,-85.1,-0.02,0,0,0,0,0,0.17,0,4.0734,0,266983,274563,0,0,24,0,0,65703790,0.17,0,4.0734,0,1.569,88.864,0,-0.28,0,552.511,568.197,1,-1,0,0,0,0,0,0,0,0,0,-1,0,0,0,0,0,0,0
65703936,24.6,26.1,0,0,0,-86.1,-0.01,0,0,0,0,0,0.17,0,4.0734,0,266983,274563,0,0,24,0,0,65703865,0.17,0,4.0734,0,1.544,87.441,0,0.28,0,552.511,568.197,1,-1,0,0,0,0,0,0,0,0,0,-1,0,0,0,0,0,0,0
65704007,24.4,26.3,0,0,0,-86.3,0,0,0,0,0,0,0.17,0,4.0734,0,266983,274563,0,0,24,0,0,65703937,0.17,0,4.0734,0,1.571,88.941,0,0.35,0,552.511,568.197,1,-1,0,0,0,0,0,0,0,0,0,-1,0,0,0,0,0,0,0
65704097,25,26.1,0,0,0,-82.2,-0.03,0,0,0,0,0,0.17,0,4.0734,0,266983,274563,0,0,24,0,0,65704007,0.17,0,4.0734,0,1.538,87.095,0,-0.03,0,552.511,568.197,1,-1,0,0,0,0,0,0,0,0,0,-1,0,0,0,0,0,0,0
65704178,25.2,26.2,0,0,0,-80.5,-0.02,0,0,0,0,0,0.17,0,4.0734,0,266983,274563,0,0,24,0,0,65704097,0.17,0,4.0734,0,1.537,87.018,0,-0.76,0,552.511,568.197,1,-1,0,0,0,0,0,0,0,0,0,-1,0,0,0,0,0,0,0
65704273,25,25.9,0,0,0,-79.7,0.03,0,0,0,0,0,0.17,0,4.0734,0,266983,274563,0,0,24,0,0,65704178,0.17,0,4.0734,0,1.548,87.633,0,0.03,0,552.511,568.197,1,-1,0,0,0,0,0,0,0,0,0,-1,0,0,0,0,0,0,0
65704369,24.9,26.5,0,0,0,-82.9,-0.08,0,0,0,0,0,0.17,0,4.0734,0,266983,274563,0,0,24,0,0,65704273,0.17,0,4.0734,0,1.539,87.133,0,-1.02,0,552.511,568.197,1,-1,0,0,0,0,0,0,0,0,0,-1,0,0,0,0,0,0,0
65704454,24.5,26.1,0,0,0,-80.8,-0.01,0,0,0,0,0,0.17,0,4.0734,0,266983,274563,0,0,24,0,0,65704370,0.17,0,4.0734,0,1.571,88.98,0,-0.34,0,552.511,568.197,1,-1,0,0,0,0,0,0,0,0,0,-1,0,0,0,0,0,0,0
65704482,25.2,26.3,0,0,0,-82.2,-0.06,0,0,0,0,0,0.17,0,4.0734,0,266983,274563,0,0,24,0,0,65704454,0.17,0,4.0734,0,1.546,87.556,0,0.37,0,552.511,568.197,1,-1,0,0,0,0,0,0,0,0,0,-1,0,0,0,0,0,0,0
65704521,24.4,26.3,0,0,0,-83.6,0.01,0,0,0,0,0,0.17,0,4.0734,0,266983,274563,0,0,24,0,0,65704482,0.17,0,4.0734,0,1.577,89.287,0,0.02,0,552.511,568.197,1,-1,0,0,0,0,0,0,0,0,0,-1,0,0,0,0,0,0,0
65704577,24.9,26.4,0,0,0,-82.5,0,0,0,0,0,0,0.17,0,4.0734,0,266983,274563,0,0,24,0,0,65704521,0.17,0,4.0734,0,1.566,88.672,0,0.32,0,552.511,568.197,1,-1,0,0,0,0,0,0,0,0,0,-1,0,0,0,0,0,0,0
65704609,24.5,26.3,0,0,0,-84.2,0.06,0,0,0,0,0,0.17,0,4.0734,0,266983,274563,0,0,24,0,0,65704577,0.17,0,4.0734,0,1.543,87.402,0,-0.35,0,552.511,568.197,1,-1,0,0,0,0,0,0,0,0,0,-1,0,0,0,0,0,0,0
65704627,24.3,25.9,0,0,0,-83.4,-0.06,0,0,0,0,0,0.17,0,4.0734,0,266983,274563,0,0,24,0,0,65704614,0.17,0,4.0734,0,1.548,87.633,0,-0.59,0,552.511,568.197,1,-1,0,0,0,0,0,0,0,0,0,-1,0,0,0,0,0,0,0
65704670,24.6,25.9,0,0,0,-82.8,0.05,0,0,0,0,0,0.17,0,4.0734,0,266983,274563,0,0,24,0,0,65704632,0.17,0,4.0734,0,1.539,87.133,0,0.57,0,552.511,568.197,1,-1,0,0,0,0,0,0,0,0,0,-1,0,0,0,0,0,0,0
65704696,24.3,26.6,0,0,0,-84.7,0.03,0,0,0,0,0,0.17,0,4.0734,0,266983,274563,0,0,24,0,0,65704670,0.17,0,4.0734,0,1.537,87.056,0,0.37,0,552.511,568.197,1,-1,0,0,0,0,0,0,0,0,0,-1,0,0,0,0,0,0,0
65704726,24.9,26,0,0,0,-85.2,0.02,0,0,0,0,0,0.17,0,4.0734,0,266983,274563,0,0,24,0,0,65704701,0.17,0,4.0734,0,1.537,87.018,0,0.41,0,552.511,568.197,1,-1,0,0,0,0,0,0,0,0,0,-1,0,0,0,0,0,0,0
65704757,24.5,26.2,0,0,0,-86,-0.01,0,0,0,0,0,0.17,0,4.0734,0,266983,274563,0,0,24,0,0,65704731,0.17,0,4.0734,0,1.528,86.556,0,-0.23,0,552.511,568.197,1,-1,0,0,0,0,0,0,0,0,0,-1,0,0,0,0,0,0,0
65704831,24.5,26.2,0,0,0,-87.7,0.03,0,0,0,0,0,0.17,0,4.0734,0,266983,274563,0,0,24,0,0,65704757,0.17,0,4.0734,0,1.553,87.941,0,0.41,0,552.511,568.197,1,-1,0,0,0,0,0,0,0,0,0,-1,0,0,0,0,0,0,0
65704903,24.9,26,0,0,0,-88.1,0.01,0,0,0,0,0,0.17,0,4.0734,0,266983,274563,0,0,24,0,0,65704832,0.17,0,4.0734,0,1.572,89.018,0,0.35,0,552.511,568.197,1,-1,0,0,0,0,0,0,0,0,0,-1,0,0,0,0,0,0,0
65704989,24.3,26.5,0,0,0,-91.6,0.04,0,0,0,0,0,0.17,0,4.0734,0,266983,274563,0,0,24,0,0,65704903,0.17,0,4.0734,0,1.571,88.941,0,-0.04,0,552.511,568.197,1,-1,0,0,0,0,0,0,0,0,0,-1,0,0,0,0,0,0,0
65705069,24.7,26.5,0,0,0,-92.5,0.02,0,0,0,0,0,0.17,0,4.0734,0,266983,274563,0,0,24,0,0,65704989,0.17,0,4.0734,0,1.538,87.095,0,-0.72,0,552.511,568.197,1,-1,0,0,0,0,0,0,0,0,0,-1,0,0,0,0,0,0,0
65705138,25,26.4,0,0,0,-92.3,0.01,0,0,0,0,0,0.17,0,4.0734,0,266983,274563,0,0,24,0,0,65705069,0.17,0,4.0734,0,1.556,88.133,0,-0.28,0,552.511,568.197,1,-1,0,0,0,0,0,0,0,0,0,-1,0,0,0,0,0,0,0
65705219,24.8,26.1,0,0,0,-87.7,-0.02,0,0,0,0,0,0.17,0,4.0734,0,266983,274563,0,0,24,0,0,65705138,0.17,0,4.0734,0,1.572,89.018,0,-0.38,0,552.511,568.197,1,-1,0,0,0,0,0,0,0,0,0,-1,0,0,0,0,0,0,0
65705287,24.3,26.5,0,0,0,-87.1,-0.04,0,0,0,0,0,0.17,0,4.0734,0,266983,274563,0,0,24,0,0,65705219,0.17,0,4.0734,0,1.561,88.403,0,0.17,0,552.511,568.197,1,-1,0,0,0,0,0,0,0,0,0,-1,0,0,0,0,0,0,0
65705352,25.3,26.1,0,0,0,-81.3,0.01,0,0,0,0,0,0.17,0,4.0734,0,266983,274563,0,0,24,0,0,65705288,0.17,0,4.0734,0,1.537,87.056,0,0.39,0,552.511,568.197,1,-1,0,0,0,0,0,0,0,0,0,-1,0,0,0,0,0,0,0
65705404,24.5,26.2,0,0,0,-81.7,-0.03,0,0,0,0,0,0.17,0,4.0734,0,266983,274563,0,0,24,0,0,65705353,0.17,0,4.0734,0,1.554,87.979,0,-0.09,0,552.511,568.197,1,-1,0,0,0,0,0,0,0,0,0,-1,0,0,0,0,0,0,0
65705475,24.5,25.9,0,0,0,-80.8,0.01,0,0,0,0,0,0.17,0,4.0734,0,266983,274563,0,0,24,0,0,65705404,0.17,0,4.0734,0,1.575,89.21,0,-0.22,0,552.511,568.197,1,-1,0,0,0,0,0,0,0,0,0,-1,0,0,0,0,0,0,0
65705536,25.2,26.2,0,0,0,-82.6,0.03,0,0,0,0,0,0.17,0,4.0734,0,266983,274563,0,0,24,0,0,65705475,0.17,0,4.0734,0,1.544,87.441,0,-1.13,0,552.511,568.197,1,-1,0,0,0,0,0,0,0,0,0,-1,0,0,0,0,0,0,0
65705601,25,25.8,0,0,0,-84.5,0.04,0,0,0,0,0,0.17,0,4.0734,0,266983,274563,0,0,24,0,0,65705537,0.17,0,4.0734,0,1.539,87.172,0,0.59,0,552.511,568.197,1,-1,0,0,0,0,0,0,0,0,0,-1,0,0,0,0,0,0,0
65705666,24.9,26.3,0,0,0,-86.3,0.02,0,0,0,0,0,0.17,0,4.0734,0,266983,274563,0,0,24,0,0,65705602,0.17,0,4.0734,0,1.573,89.095,0,-0.19,0,552.511,568.197,1,-1,0,0,0,0,0,0,0,0,0,-1,0,0,0,0,0,0,0
65705720,24.4,26.3,0,0,0,-88.2,0.03,0,0,0,0,0,0.17,0,4.0734,0,266983,274563,0,0,24,0,0,65705667,0.17,0,4.0734,0,1.555,88.056,0,-0.09,0,552.511,568.197,1,-1,0,0,0,0,0,0,0,0,0,-1,0,0,0,0,0,0,0
65705794,24.5,26.2,0,0,0,-88.2,0.06,0,0,0,0,0,0.17,0,4.0734,0,266983,274563,0,0,24,0,0,65705720,0.17,0,4.0734,0,1.543,87.364,0,-0.59,0,552.511,568.197,1,-1,0,0,0,0,0,0,0,0,0,-1,0,0,0,0,0,0,0
65705858,24.4,25.9,0,0,0,-84.5,-0.07,0,0,0,0,0,0.17,0,4.0734,0,266983,274563,0,0,24,0,0,65705794,0.17,0,4.0734,0,1.55,87.787,0,0.36,0,552.511,568.197,1,-1,0,0,0,0,0,0,0,0,0,-1,0,0,0,0,0,0,0
65705930,24.9,26.6,0,0,0,-86.5,0,0,0,0,0,0,0.17,0,4.0734,0,266983,274563,0,0,24,0,0,65705859,0.17,0,4.0734,0,1.567,88.749,0,-0.7,0,552.511,568.197,1,-1,0,0,0,0,0,0,0,0,0,-1,0,0,0,0,0,0,0
65705996,25,25.9,0,0,0,-84.7,0.02,0,0,0,0,0,0.17,0,4.0734,0,266983,274563,0,0,24,0,0,65705930,0.17,0,4.0734,0,1.566,88.672,0,0.58,0,552.511,568.197,1,-1,0,0,0,0,0,0,0,0,0,-1,0,0,0,0,0,0,0
65706079,24.6,26.5,0,0,0,-85.1,0.05,0,0,0,0,0,0.17,0,4.0734,0,266983,274563,0,0,24,0,0,65705996,0.17,0,4.0734,0,1.543,87.402,0,-0.57,0,552.511,568.197,1,-1,0,0,0,0,0,0,0,0,0,-1,0,0,0,0,0,0,0
65706137,24.7,26.1,0,0,0,-84.2,0.06,0,0,0,0,0,0.17,0,4.0734,0,266983,274563,0,0,24,0,0,65706080,0.17,0,4.0734,0,1.54,87.21,0,-0.68,0,552.511,568.197,1,-1,0,0,0,0,0,0,0,0,0,-1,0,0,0,0,0,0,0
65706192,24.4,26.1,0,0,0,-86.5,0.1,0,0,0,0,0,0.17,0,4.0734,0,266983,274563,0,0,24,0,0,65706137,0.17,0,4.0734,0,1.556,88.095,0,0.05,0,552.511,568.197,1,-1,0,0,0,0,0,0,0,0,0,-1,0,0,0,0,0,0,0
65706282,25.2,25.8,0,0,0,-85.2,-0.03,0,0,0,0,0,0.17,0,4.0734,0,266983,274563,0,0,24,0,0,65706192,0.17,0,4.0734,0,1.569,88.864,0,-0.43,0,552.511,568.197,1,-1,0,0,0,0,0,0,0,0,0,-1,0,0,0,0,0,0,0
65706344,24.5,25.9,0,0,0,-81.9,-0.09,0,0,0,0,0,0.17,0,4.0734,0,266983,274563,0,0,24,0,0,65706283,0.17,0,4.0734,0,1.536,86.979,0,-0.66,0,552.511,568.197,1,-1,0,0,0,0,0,0,0,0,0,-1,0,0,0,0,0,0,0
65706415,24.8,26.1,0,0,0,-82.6,-0.01,0,0,0,0,0,0.17,0,4.0734,0,266983,274563,0,0,24,0,0,65706344,0.17,0,4.0734,0,1.548,87.633,0,-1.31,0,552.511,568.197,1,-1,0,0,0,0,0,0,0,0,0,-1,0,0,0,0,0,0,0
65706483,24.5,25.8,0,0,0,-82,0.05,0,0,0,0,0,0.17,0,4.0734,0,266983,274563,0,0,24,0,0,65706415,0.17,0,4.0734,0,1.554,88.018,0,0.34,0,552.511,568.197,1,-1,0,0,0,0,0,0,0,0,0,-1,0,0,0,0,0,0,0
65706541,25.3,26.2,0,0,0,-84.5,-0.03,0,0,0,0,0,0.17,0,4.0734,0,266983,274563,0,0,24,0,0,65706483,0.17,0,4.0734,0,1.565,88.633,0,0.28,0,552.511,568.197,1,-1,0,0,0,0,0,0,0,0,0,-1,0,0,0,0,0,0,0
65706586,24.4,26.6,0,0,0,-86.1,0,0,0,0,0,0,0.17,0,4.0734,0,266983,274563,0,0,24,0,0,65706541,0.17,0,4.0734,0,1.55,87.749,0,-0.07,0,552.511,568.197,1,-1,0,0,0,0,0,0,0,0,0,-1,0,0,0,0,0,0,0
65706652,25.4,26,0,0,0,-88.7,0.02,0,0,0,0,0,0.17,0,4.0734,0,266983,274563,0,0,24,0,0,65706586,0.17,0,4.0734,0,1.552,87.864,0,0.92,0,552.511,568.197,1,-1,0,0,0,0,0,0,0,0,0,-1,0,0,0,0,0,0,0
65706708,25,25.9,0,0,0,-85.1,0,0,0,0,0,0,0.17,0,4.0734,0,266983,274563,0,0,24,0,0,65706653,0.17,0,4.0734,0,1.548,87.633,0,0.41,0,552.511,568.197,1,-1,0,0,0,0,0,0,0,0,0,-1,0,0,0,0,0,0,0
65706770,24.7,26.1,0,0,0,-84.6,0.07,0,0,0,0,0,0.17,0,4.0734,0,266983,274563,0,0,24,0,0,65706708,0.17,0,4.0734,0,1.538,87.095,0,0.15,0,552.511,568.197,1,-1,0,0,0,0,0,0,0,0,0,-1,0,0,0,0,0,0,0
65706808,24.5,25.8,0,0,0,-83.7,0,0,0,0,0,0,0.17,0,4.0734,0,266983,274563,0,0,24,0,0,65706770,0.17,0,4.0734,0,1.55,87.749,0,0.32,0,552.511,568.197,1,-1,0,0,0,0,0,0,0,0,0,-1,0,0,0,0,0,0,0
65706882,24.4,26.3,0,0,0,-85.8,0,0,0,0,0,0,0.17,0,4.0734,0,266983,274563,0,0,24,0,0,65706808,0.17,0,4.0734,0,1.54,87.21,0,-0.34,0,552.511,568.197,1,-1,0,0,0,0,0,0,0,0,0,-1,0,0,0,0,0,0,0
65706955,24.5,25.7,0,0,0,-83.2,-0.06,0,0,0,0,0,0.17,0,4.0734,0,266983,274563,0,0,24,0,0,65706882,0.17,0,4.0734,0,1.575,89.172,0,0.69,0,552.511,568.197,1,-1,0,0,0,0,0,0,0,0,0,-1,0,0,0,0,0,0,0
65707041,24.7,25.9,0,0,0,-82.7,0,0,0,0,0,0,0.17,0,4.0734,0,266983,274563,0,0,24,0,0,65706956,0.17,0,4.0734,0,1.545,87.518,0,-0.93,0,552.511,568.197,1,-1,0,0,0,0,0,0,0,0,0,-1,0,0,0,0,0,0,0
65707131,24.6,26.1,0,0,0,-85.8,0.04,0,0,0,0,0,0.17,0,4.0734,0,266983,274563,0,0,24,0,0,65707041,0.17,0,4.0734,0,1.573,89.057,0,0,0,552.511,568.197,1,-1,0,0,0,0,0,0,0,0,0,-1,0,0,0,0,0,0,0
65707192,24.5,26,0,0,0,-84.6,-0.06,0,0,0,0,0,0.17,0,4.0734,0,266983,274563,0,0,24,0,0,65707131,0.17,0,4.0734,0,1.539,87.133,0,0.63,0,552.511,568.197,1,-1,0,0,0,0,0,0,0,0,0,-1,0,0,0,0,0,0,0
65707246,24.4,26.2,0,0,0,-87.3,0.03,0,0,0,0,0,0.17,0,4.0734,0,266983,274563,0,0,24,0,0,65707192,0.17,0,4.0734,0,1.543,87.402,0,-0.72,0,552.511,568.197,1,-1,0,0,0,0,0,0,0,0,0,-1,0,0,0,0,0,0,0
65707289,24.6,26,0,0,0,-86,0.02,0,0,0,0,0,0.17,0,4.0734,0,266983,274563,0,0,24,0,0,65707246,0.17,0,4.0734,0,1.542,87.325,0,0.54,0,552.511,568.197,1,-1,0,0,0,0,0,0,0,0,0,-1,0,0,0,0,0,0,0
65707339,25,26.3,0,0,0,-86,0.01,0,0,0,0,0,0.17,0,4.0734,0,266983,274563,0,0,24,0,0,65707289,0.17,0,4.0734,0,1.571,88.98,0,-0.13,0,552.511,568.197,1,-1,0,0,0,0,0,0,0,0,0,-1,0,0,0,0,0,0,0
65707411,24.4,25.9,0,0,0,-81.1,0.01,0,0,0,0,0,0.17,0,4.0734,0,266983,274563,0,0,24,0,0,65707339,0.17,0,4.0734,0,1.543,87.402,0,-0.74,0,552.511,568.197,1,-1,0,0,0,0,0,0,0,0,0,-1,0,0,0,0,0,0,0
65707470,24.9,26.2,0,0,0,-83.1,0.06,0,0,0,0,0,0.17,0,4.0734,0,266983,274563,0,0,24,0,0,65707411,0.17,0,4.0734,0,1.55,87.749,0,-0.08,0,552.511,568.197,1,-1,0,0,0,0,0,0,0,0,0,-1,0,0,0,0,0,0,0
65707536,25.2,26.2,0,0,0,-85.4,0.03,0,0,0,0,0,0.17,0,4.0734,0,266983,274563,0,0,24,0,0,65707470,0.17,0,4.0734,0,1.566,88.672,0,-0.24,0,552.511,568.197,1,-1,0,0,0,0,0,0,0,0,0,-1,0,0,0,0,0,0,0
65707601,25,26.3,0,0,0,-88.4,0.01,0,0,0,0,0,0.17,0,4.0734,0,266983,274563,0,0,24,0,0,65707536,0.17,0,4.0734,0,1.549,87.71,0,-0.23,0,552.511,568.197,1,-1,0,0,0,0,0,0,0,0,0,-1,0,0,0,0,0,0,0
65707653,24.9,25.8,0,0,0,-87.2,0.04,0,0,0,0,0,0.17,0,4.0734,0,266983,274563,0,0,24,0,0,65707601,0.17,0,4.0734,0,1.527,86.479,0,0.24,0,552.511,568.197,1,-1,0,0,0,0,0,0,0,0,0,-1,0,0,0,0,0,0,0
65707713,24.7,26,0,0,0,-85.6,0.02,0,0,0,0,0,0.17,0,4.0734,0,266983,274563,0,0,24,0,0,65707653,0.17,0,4.0734,0,1.569,88.864,0,-0.36,0,552.511,568.197,1,-1,0,0,0,0,0,0,0,0,0,-1,0,0,0,0,0,0,0
65707776,24.3,26.3,0,0,0,-87.2,0.03,0,0,0,0,0,0.17,0,4.0734,0,266983,274563,0,0,24,0,0,65707714,0.17,0,4.0734,0,1.566,88.672,0,0.25,0,552.511,568.197,1,-1,0,0,0,0,0,0,0,0,0,-1,0,0,0,0,0,0,0
65707857,24.4,26,0,0,0,-86.1,0.01,0,0,0,0,0,0.17,0,4.0734,0,266983,274563,0,0,24,0,0,65707777,0.17,0,4.0734,0,1.558,88.21,0,0.26,0,552.511,568.197,1,-1,0,0,0,0,0,0,0,0,0,-1,0,0,0,0,0,0,0
65707907,24.9,26.5,0,0,0,-88.9,-0.06,0,0,0,0,0,0.17,0,4.0734,0,266983,274563,0,0,24,0,0,65707857,0.17,0,4.0734,0,1.559,88.287,0,-0.8,0,552.511,568.197,1,-1,0,0,0,0,0,0,0,0,0,-1,0,0,0,0,0,0,0
65707954,24.5,25.8,0,0,0,-82.8,-0.02,0,0,0,0,0,0.17,0,4.0734,0,266983,274563,0,0,24,0,0,65707908,0.17,0,4.0734,0,1.536,86.979,0,0.72,0,552.511,568.197,1,-1,0,0,0,0,0,0,0,0,0,-1,0,0,0,0,0,0,0
65707987,24.9,26,0,0,0,-83,0.04,0,0,0,0,0,0.17,0,4.0734,0,266983,274563,0,0,24,0,0,65707954,0.17,0,4.0734,0,1.571,88.98,0,0.68,0,552.511,568.197,1,-1,0,0,0,0,0,0,0,0,0,-1,0,0,0,0,0,0,0
65708106,25,26.6,0,0,0,-82.9,0.03,0,0,0,0,0,0.17,0,4.0734,0,266983,274563,0,0,24,0,0,65707987,0.17,0,4.0734,0,1.556,88.095,0,-0.24,0,552.511,568.197,1,-1,0,0,0,0,0,0,0,0,0,-1,0,0,0,0,0,0,0
65708154,25.1,26.5,0,0,0,-84,0.03,0,0,0,0,0,0.17,0,4.0734,0,266984,274564,0,0,24,0,0,65708106,0.17,0,4.0734,0,1.538,87.095,0,-0.19,0,552.511,568.197,1,-1,0,0,0,0,0,0,0,0,0,-1,0,0,0,0,0,0,0
65708183,24.5,26.5,0,0,0,-85.2,0.02,0,0,0,0,0,0.17,0,4.0734,0,266984,274564,0,0,24,0,0,65708159,0.17,0,4.0734,0,1.562,88.441,0,0.21,0,552.513,568.199,1,-1,0,0,0,0,0,0,0,0,0,-1,0,0,0,0,0,0,0
65708214,24.5,25.9,0,0,0,-83,-0.07,0,0,0,0,0,0.17,0,4.0734,0,266984,274564,0,0,24,0,0,65708183,0.17,0,4.0734,0,1.54,87.21,0,0.33,0,552.513,568.199,1,-1,0,0,0,0,0,0,0,0,0,-1,0,0,0,0,0,0,0
65708268,24.3,25.9,0,0,0,-81.7,0.08,0,0,0,0,0,0.17,0,4.0734,0,266984,274564,0,0,24,0,0,65708214,0.17,0,4.0734,0,1.535,86.902,0,-0.33,0,552.513,568.199,1,-1,0,0,0,0,0,0,0,0,0,-1,0,0,0,0,0,0,0
65708331,25.2,26.1,0,0,0,-79.1,0.09,0,0,0,0,0,0.17,0,4.0734,0,266984,274564,0,0,24,0,0,65708268,0.17,0,4.0734,0,1.535,86.941,0,-0.66,0,552.513,568.199,1,-1,0,0,0,0,0,0,0,0,0,-1,0,0,0,0,0,0,0
65708405,24.4,26,0,0,0,-80.8,0.03,0,0,0,0,0,0.17,0,4.0734,0,266984,274564,0,0,24,0,0,65708331,0.17,0,4.0734,0,1.535,86.902,0,0.29,0,552.513,568.199,1,-1,0,0,0,0,0,0,0,0,0,-1,0,0,0,0,0,0,0
65708474,25,26.2,0,0,0,-83.8,0.06,0,0,0,0,0,0.17,0,4.0734,0,266984,274564,0,0,24,0,0,65708406,0.17,0,4.0734,0,1.559,88.287,0,0.96,0,552.513,568.199,1,-1,0,0,0,0,0,0,0,0,0,-1,0,0,0,0,0,0,0
65708546,24.7,25.6,0,0,0,-82.2,0.05,0,0,0,0,0,0.17,0,4.0734,0,266984,274564,0,0,24,0,0,65708474,0.17,0,4.0734,0,1.538,87.095,0,0.05,0,552.513,568.199,1,-1,0,0,0,0,0,0,0,0,0,-1,0,0,0,0,0,0,0
65708630,24.5,26.2,0,0,0,-81.7,0.04,0,0,0,0,0,0.17,0,4.0734,0,266984,274564,0,0,24,0,0,65708546,0.17,0,4.0734,0,1.573,89.095,0,-0.43,0,552.513,568.199,1,-1,0,0,0,0,0,0,0,0,0,-1,0,0,0,0,0,0,0
65708682,25.1,26,0,0,0,-79.1,0.07,0,0,0,0,0,0.17,0,4.0734,0,266984,274564,0,0,24,0,0,65708631,0.17,0,4.0734,0,1.537,87.018,0,-0.12,0,552.513,568.199,1,-1,0,0,0,0,0,0,0,0,0,-1,0,0,0,0,0,0,0
65708715,24.5,26.5,0,0,0,-80.4,0.11,0,0,0,0,0,0.17,0,4.0734,0,266984,274564,0,0,24,0,0,65708689,0.17,0,4.0734,0,1.562,88.441,0,0.72,0,552.513,568.199,1,-1,0,0,0,0,0,0,0,0,0,-1,0,0,0,0,0,0,0
65708745,24.3,26.4,0,0,0,-82.2,0.01,0,0,0,0,0,0.17,0,4.0734,0,266984,274564,0,0,24,0,0,65708715,0.17,0,4.0734,0,1.569,88.826,0,-0.66,0,552.513,568.199,1,-1,0,0,0,0,0,0,0,0,0,-1,0,0,0,0,0,0,0
65708768,24.7,25.9,0,0,0,-81.4,-0.01,0,0,0,0,0,0.17,0,4.0734,0,266984,274564,0,0,24,0,0,65708745,0.17,0,4.0734,0,1.539,87.172,0,0.13,0,552.513,568.199,1,-1,0,0,0,0,0,0,0,0,0,-1,0,0,0,0,0,0,0
65708804,24.5,25.9,0,0,0,-84.4,0.08,0,0,0,0,0,0.17,0,4.0734,0,266984,274564,0,0,24,0,0,65708768,0.17,0,4.0734,0,1.571,88.941,0,0.82,0,552.513,568.199,1,-1,0,0,0,0,0,0,0,0,0,-1,0,0,0,0,0,0,0
65708834,24.6,25.6,0,0,0,-82.4,0.07,0,0,0,0,0,0.17,0,4.0734,0,266984,274564,0,0,24,0,0,65708804,0.17,0,4.0734,0,1.548,87.633,0,-0.02,0,552.513,568.199,1,-1,0,0,0,0,0,0,0,0,0,-1,0,0,0,0,0,0,0
65708871,24.9,25.6,0,0,0,-83.4,-0.01,0,0,0,0,0,0.17,0,4.0734,0,266984,274564,0,0,24,0,0,65708834,0.17,0,4.0734,0,1.572,89.018,0,0.52,0,552.513,568.199,1,-1,0,0,0,0,0,0,0,0,0,-1,0,0,0,0,0,0,0
65708905,25.2,26.1,0,0,0,-84.9,0.1,0,0,0,0,0,0.17,0,4.0734,0,266984,274564,0,0,24,0,0,65708872,0.17,0,4.0734,0,1.548,87.672,0,-0.05,0,552.513,568.199,1,-1,0,0,0,0,0,0,0,0,0,-1,0,0,0,0,0,0,0
65708943,24.6,26.1,0,0,0,-89.1,-0.01,0,0,0,0,0,0.17,0,4.0734,0,266984,274564,0,0,24,0,0,65708905,0.17,0,4.0734,0,1.546,87.556,0,-0.36,0,552.513,568.199,1,-1,0,0,0,0,0,0,0,0,0,-1,0,0,0,0,0,0,0
65708971,24.6,26.1,0,0,0,-88.8,0.02,0,0,0,0,0,0.17,0,4.0734,0,266984,274564,0,0,24,0,0,65708943,0.17,0,4.0734,0,1.571,88.941,0,-0.2,0,552.513,568.199,1,-1,0,0,0,0,0,0,0,0,0,-1,0,0,0,0,0,0,0
65709004,25.1,26.1,0,0,0,-90.2,0.1,0,0,0,0,0,0.17,0,4.0734,0,266984,274564,0,0,24,0,0,65708971,0.17,0,4.0734,0,1.554,88.018,0,-0.12,0,552.513,568.199,1,-1,0,0,0,0,0,0,0,0,0,-1,0,0,0,0,0,0,0
65709046,25.3,25.8,0,0,0,-89.4,0.03,0,0,0,1,0,0.17,0,4.0734,0,266985,274565,0,0,24,0,0,65709004,0.17,0,4.0734,0,1.553,87.941,0,-0.22,0,552.513,568.199,1,-1,0,0,0,0,0,0,0,0,0,-1,0,0,0,0,0,0,0
65709092,24.9,26.1,0,0,0,-88.6,0,0,0,0,1,0,0.17,0,4.0734,0,266985,274565,0,0,24,0,0,65709053,0.17,0,4.0734,0,1.53,86.633,0,-0.64,0,552.515,568.201,1,-1,0,0,0,0,0,0,0,0,0,-1,0,0,0,0,0,0,0
65709126,24.3,25.8,0,0,0,-86,0.06,0,0,0,1,0,0.17,0,4.0734,0,266985,274565,0,0,24,0,0,65709092,0.17,0,4.0734,0,1.541,87.287,0,-0.17,0,552.515,568.201,1,-1,0,0,0,0,0,0,0,0,0,-1,0,0,0,0,0,0,0
65709158,25.2,26,0,0,0,-85.1,0.02,0,0,0,1,0,0.17,0,4.0734,0,266985,274565,0,0,24,0,0,65709126,0.17,0,4.0734,0,1.556,88.095,0,-0.78,0,552.515,568.201,1,-1,0,0,0,0,0,0,0,0,0,-1,0,0,0,0,0,0,0
65709189,25.4,26.4,0,0,0,-84.4,0.11,0,0,0,1,0,0.17,0,4.0734,0,266985,274565,0,0,24,0,0,65709158,0.17,0,4.0734,0,1.53,86.633,0,0.3,0,552.515,568.201,1,-1,0,0,0,0,0,0,0,0,0,-1,0,0,0,0,0,0,0
65709220,24.6,25.8,0,0,0,-84.1,-0.13,0,0,0,1,0,0.17,0,4.0734,0,266985,274565,0,0,24,0,0,65709190,0.17,0,4.0734,0,1.529,86.595,0,0.61,0,552.515,568.201,1,-1,0,0,0,0,0,0,0,0,0,-1,0,0,0,0,0,0,0
65709251,24.6,26.2,0,0,0,-85.5,0.04,0,0,0,1,0,0.17,0,4.0734,0,266985,274565,0,0,24,0,0,65709220,0.17,0,4.0734,0,1.551,87.826,0,-0.39,0,552.515,568.201,1,-1,0,0,0,0,0,0,0,0,0,-1,0,0,0,0,0,0,0
65709283,24.6,26.2,0,0,0,-87.1,0.11,0,0,0,1,0,0.17,0,4.0734,0,266985,274565,0,0,24,0,0,65709257,0.17,0,4.0734,0,1.558,88.249,0,-0.73,0,552.515,568.201,1,-1,0,0,0,0,0,0,0,0,0,-1,0,0,0,0,0,0,0
65709313,25.3,26.3,0,0,0,-87.5,0.07,0,0,0,1,0,0.17,0,4.0734,0,266985,274565,0,0,24,0,0,65709283,0.17,0,4.0734,0,1.531,86.672,0,0.38,0,552.515,568.201,1,-1,0,0,0,0,0,0,0,0,0,-1,0,0,0,0,0,0,0
65709340,24.4,26.2,0,0,0,-87.8,0.1,0,0,0,1,0,0.17,0,4.0734,0,266985,274565,0,0,24,0,0,65709313,0.17,0,4.0734,0,1.536,86.979,0,-0.4,0,552.515,568.201,1,-1,0,0,0,0,0,0,0,0,0,-1,0,0,0,0,0,0,0
65709370,25,25.8,0,0,0,-86.2,0.11,0,0,0,1,0,0.17,0,4.0734,0,266985,274565,0,0,24,0,0,65709340,0.17,0,4.0734,0,1.567,88.71,0,-0.15,0,552.515,568.201,1,-1,0,0,0,0,0,0,0,0,0,-1,0,0,0,0,0,0,0
65709406,25.3,26,0,0,0,-84.7,0.11,0,0,0,1,0,0.17,0,4.0734,0,266985,274565,0,0,24,0,0,65709370,0.17,0,4.0734,0,1.531,86.71,0,0.37,0,552.515,568.201,1,-1,0,0,0,0,0,0,0,0,0,-1,0,0,0,0,0,0,0
65709438,24.9,25.9,0,0,0,-83.5,0.05,0,0,0,1,0,0.17,0,4.0734,0,266985,274565,0,0,24,0,0,65709406,0.17,0,4.0734,0,1.55,87.749,0,0.2,0,552.515,568.201,1,-1,0,0,0,0,0,0,0,0,0,-1,0,0,0,0,0,0,0
65709478,24.5,26.1,0,0,0,-83.8,0.09,0,0,0,1,0,0.17,0,4.0734,0,266985,274565,0,0,24,0,0,65709438,0.17,0,4.0734,0,1.543,87.364,0,0.51,0,552.515,568.201,1,-1,0,0,0,0,0,0,0,0,0,-1,0,0,0,0,0,0,0
65709539,25,26,0,0,0,-81.7,0.05,0,0,0,1,0,0.17,0,4.0734,0,266985,274565,0,0,24,0,0,65709478,0.17,0,4.0734,0,1.543,87.402,0,0.12,0,552.515,568.201,1,-1,0,0,0,0,0,0,0,0,0,-1,0,0,0,0,0,0,0
65709597,24.5,26.2,0,0,0,-86.1,0.1,0,0,0,1,0,0.17,0,4.0734,0,266985,274565,0,0,24,0,0,65709539,0.17,0,4.0734,0,1.541,87.287,0,-0.58,0,552.515,568.201,1,-1,0,0,0,0,0,0,0,0,0,-1,0,0,0,0,0,0,0
65709641,24.4,26.2,0,0,0,-88.8,0.1,0,0,0,1,0,0.17,0,4.0734,0,266985,274565,0,0,24,0,0,65709597,0.17,0,4.0734,0,1.544,87.441,0,0.33,0,552.515,568.201,1,-1,0,0,0,0,0,0,0,0,0,-1,0,0,0,0,0,0,0
65709702,24.4,25.8,0,0,0,-86.9,0.08,0,0,0,1,0,0.17,0,4.0734,0,266985,274565,0,0,24,0,0,65709642,0.17,0,4.0734,0,1.545,87.479,0,0.41,0,552.515,568.201,1,-1,0,0,0,0,0,0,0,0,0,-1,0,0,0,0,0,0,0
65709763,24.6,25.7,0,0,0,-85,0,0,0,0,1,0,0.17,0,4.0734,0,266985,274565,0,0,24,0,0,65709702,0.17,0,4.0734,0,1.539,87.133,0,-0.36,0,552.515,568.201,1,-1,0,0,0,0,0,0,0,0,0,-1,0,0,0,0,0,0,0
65709826,25,26.2,0,0,0,-82.5,0.03,0,0,0,1,0,0.17,0,4.0734,0,266985,274565,0,0,24,0,0,65709763,0.17,0,4.0734,0,1.551,87.826,0,-0.73,0,552.515,568.201,1,-1,0,0,0,0,0,0,0,0,0,-1,0,0,0,0,0,0,0
65709874,25.4,26.7,0,0,0,-85.8,0.12,0,0,0,1,0,0.17,0,4.0734,0,266985,274565,0,0,24,0,0,65709826,0.17,0,4.0734,0,1.571,88.98,0,0.51,0,552.515,568.201,1,-1,0,0,0,0,0,0,0,0,0,-1,0,0,0,0,0,0,0
65709907,25.2,26.1,0,0,0,-85.9,0.03,0,0,0,1,0,0.17,0,4.0734,0,266985,274565,0,0,24,0,0,65709875,0.17,0,4.0734,0,1.552,87.864,0,-0.16,0,552.515,568.201,1,-1,0,0,0,0,0,0,0,0,0,-1,0,0,0,0,0,0,0
65709935,24.8,25.8,0,0,0,-84.8,0.11,0,0,0,1,0,0.17,0,4.0734,0,266985,274565,0,0,24,0,0,65709907,0.17,0,4.0734,0,1.579,89.403,0,-0.75,0,552.515,568.201,1,-1,0,0,0,0,0,0,0,0,0,-1,0,0,0,0,0,0,0
65709970,25.1,26.1,0,0,0,-84.8,0.05,0,0,0,1,0,0.17,0,4.0734,0,266985,274565,0,0,24,0,0,65709935,0.17,0,4.0734,0,1.543,87.364,0,-0.97,0,552.515,568.201,1,-1,0,0,0,0,0,0,0,0,0,-1,0,0,0,0,0,0,0
65710005,24.9,26.1,0,0,0,-83.4,-0.05,0,0,0,1,0,0.17,0,4.0734,0,266985,274565,0,0,24,0,0,65709970,0.17,0,4.0734,0,1.551,87.826,0,0.33,0,552.515,568.201,1,-1,0,0,0,0,0,0,0,0,0,-1,0,0,0,0,0,0,0
65710051,25.3,26.3,0,0,0,-85.8,0.02,0,0,0,1,0,0.17,0,4.0734,0,266985,274565,0,0,24,0,0,65710041,0.17,0,4.0734,0,1.564,88.556,0,-0.11,0,552.515,568.201,1,-1,0,0,0,0,0,0,0,0,0,-1,0,0,0,0,0,0,0
65710090,25.1,25.7,0,0,0,-79.7,0.07,0,0,0,1,0,0.17,0,4.0734,0,266985,274565,0,0,24,0,0,65710041,0.17,0,4.0734,0,1.564,88.556,0,-0.11,0,552.515,568.201,1,-1,0,0,0,0,0,0,0,0,0,-1,0,0,0,0,0,0,0
65710122,24.5,25.8,0,0,0,-80.3,0.09,0,0,0,1,0,0.17,0,4.0734,0,266985,274565,0,0,24,0,0,65710091,0.17,0,4.0734,0,1.565,88.633,0,-0.34,0,552.515,568.201,1,-1,0,0,0,0,0,0,0,0,0,-1,0,0,0,0,0,0,0
65710156,25.2,26,0,0,0,-81.6,0,0,0,0,1,0,0.17,0,4.0734,0,266985,274565,0,0,24,0,0,65710125,0.17,0,4.0734,0,1.569,88.864,0,-1.1,0,552.515,568.201,1,-1,0,0,0,0,0,0,0,0,0,-1,0,0,0,0,0,0,0
65710203,24.4,26.4,0,0,0,-84.3,-0.06,0,0,0,1,0,0.17,0,4.0734,0,266985,274565,0,0,24,0,0,65710157,0.17,0,4.0734,0,1.554,87.979,0,-0.08,0,552.515,568.201,1,-1,0,0,0,0,0,0,0,0,0,-1,0,0,0,0,0,0,0
65710288,24.8,26,0,0,0,-82,0.02,0,0,0,1,0,0.17,0,4.0734,0,266985,274565,0,0,24,0,0,65710203,0.17,0,4.0734,0,1.561,88.403,0,-0.37,0,552.515,568.201,1,-1,0,0,0,0,0,0,0,0,0,-1,0,0,0,0,0,0,0
65710366,25,26.2,0,0,0,-81.8,0.02,0,0,0,1,0,0.17,0,4.0734,0,266985,274565,0,0,24,0,0,65710289,0.17,0,4.0734,0,1.548,87.672,0,-0.26,0,552.515,568.201,1,-1,0,0,0,0,0,0,0,0,0,-1,0,0,0,0,0,0,0
65710440,25.2,26.5,0,0,0,-83.5,-0.02,0,0,0,1,0,0.17,0,4.0734,0,266985,274565,0,0,24,0,0,65710366,0.17,0,4.0734,0,1.535,86.902,0,-0.09,0,552.515,568.201,1,-1,0,0,0,0,0,0,0,0,0,-1,0,0,0,0,0,0,0
65710505,24.5,26.4,0,0,0,-84,0.1,0,0,0,1,0,0.17,0,4.0734,0,266985,274565,0,0,24,0,0,65710440,0.17,0,4.0734,0,1.543,87.402,0,-0.46,0,552.515,568.201,1,-1,0,0,0,0,0,0,0,0,0,-1,0,0,0,0,0,0,0
65710568,25.2,26.4,0,0,0,-81.5,0.05,0,0,0,1,0,0.17,0,4.0734,0,266985,274565,0,0,24,0,0,65710506,0.17,0,4.0734,0,1.571,88.941,0,0.33,0,552.515,568.201,1,-1,0,0,0,0,0,0,0,0,0,-1,0,0,0,0,0,0,0
65710634,24.9,26,0,0,0,-81,0.06,0,0,0,1,0,0.17,0,4.0734,0,266985,274565,0,0,24,0,0,65710568,0.17,0,4.0734,0,1.543,87.402,0,-0.17,0,552.515,568.201,1,-1,0,0,0,0,0,0,0,0,0,-1,0,0,0,0,0,0,0
65710725,24.4,26.2,0,0,0,-80.5,0.07,0,0,0,1,0,0.17,0,4.0734,0,266985,274565,0,0,24,0,0,65710635,0.17,0,4.0734,0,1.552,87.903,0,0.52,0,552.515,568.201,1,-1,0,0,0,0,0,0,0,0,0,-1,0,0,0,0,0,0,0
65710788,24.5,26.7,0,0,0,-84.7,0.06,0,0,0,1,0,0.17,0,4.0734,0,266985,274565,0,0,24,0,0,65710725,0.17,0,4.0734,0,1.552,87.903,0,-0.05,0,552.515,568.201,1,-1,0,0,0,0,0,0,0,0,0,-1,0,0,0,0,0,0,0
65710852,25.2,25.7,0,0,0,-79.7,0.09,0,0,0,1,0,0.17,0,4.0734,0,266985,274565,0,0,24,0,0,65710789,0.17,0,4.0734,0,1.573,89.057,0,0.04,0,552.515,568.201,1,-1,0,0,0,0,0,0,0,0,0,-1,0,0,0,0,0,0,0
65710929,25.2,26.5,0,0,0,-83.2,0.06,0,0,0,1,0,0.17,0,4.0734,0,266985,274565,0,0,24,0,0,65710852,0.17,0,4.0734,0,1.543,87.364,0,0.03,0,552.515,568.201,1,-1,0,0,0,0,0,0,0,0,0,-1,0,0,0,0,0,0,0
65710994,25,26.2,0,0,0,-83.5,0.07,0,0,0,1,0,0.17,0,4.0734,0,266985,274565,0,0,24,0,0,65710930,0.17,0,4.0734,0,1.579,89.403,0,-0.31,0,552.515,568.201,1,-1,0,0,0,0,0,0,0,0,0,-1,0,0,0,0,0,0,0
65711063,25.3,26.5,0,0,0,-83.7,0.05,0,0,0,1,0,0.17,0,4.0734,0,266985,274565,0,0,24,0,0,65710995,0.17,0,4.0734,0,1.539,87.172,0,0.21,0,552.515,568.201,1,-1,0,0,0,0,0,0,0,0,0,-1,0,0,0,0,0,0,0
65711142,24.6,25.7,0,0,0,-79.4,0,0,0,0,1,0,0.17,0,4.0734,0,266985,274565,0,0,24,0,0,65711064,0.17,0,4.0734,0,1.527,86.479,0,-0.72,0,552.515,568.201,1,-1,0,0,0,0,0,0,0,0,0,-1,0,0,0,0,0,0,0
65711224,24.9,26,0,0,0,-79.1,0.07,0,0,0,1,0,0.17,0,4.0734,0,266985,274565,0,0,24,0,0,65711142,0.17,0,4.0734,0,1.576,89.249,0,-0.64,0,552.515,568.201,1,-1,0,0,0,0,0,0,0,0,0,-1,0,0,0,0,0,0,0
65711307,24.4,26,0,0,0,-79.3,-0.02,0,0,0,1,0,0.17,0,4.0734,0,266985,274565,0,0,24,0,0,65711224,0.17,0,4.0734,0,1.543,87.364,0,0.18,0,552.515,568.201,1,-1,0,0,0,0,0,0,0,0,0,-1,0,0,0,0,0,0,0
65711393,24.6,25.5,0,0,0,-82.6,0.05,0,0,0,1,0,0.17,0,4.0734,0,266985,274565,0,0,24,0,0,65711308,0.17,0,4.0734,0,1.525,86.364,0,-0.61,0,552.515,568.201,1,-1,0,0,0,0,0,0,0,0,0,-1,0,0,0,0,0,0,0
65711468,24.3,26.3,0,0,0,-84.7,0.03,0,0,0,1,0,0.17,0,4.0734,0,266985,274565,0,0,24,0,0,65711394,0.17,0,4.0734,0,1.547,87.595,0,0.03,0,552.515,568.201,1,-1,0,0,0,0,0,0,0,0,0,-1,0,0,0,0,0,0,0
65711541,24.7,26.5,0,0,0,-82.7,0.05,0,0,0,1,0,0.17,0,4.0734,0,266985,274565,0,0,24,0,0,65711469,0.17,0,4.0734,0,1.565,88.633,0,-0.16,0,552.515,568.201,1,-1,0,0,0,0,0,0,0,0,0,-1,0,0,0,0,0,0,0
65711625,24.3,25.6,0,0,0,-81.4,0.06,0,0,0,1,0,0.17,0,4.0734,0,266985,274565,0,0,24,0,0,65711541,0.17,0,4.0734,0,1.576,89.249,0,0.26,0,552.515,568.201,1,-1,0,0,0,0,0,0,0,0,0,-1,0,0,0,0,0,0,0
65711689,24.6,26.7,0,0,0,-85.7,-0.04,0,0,0,1,0,0.17,0,4.0734,0,266985,274565,0,0,24,0,0,65711628,0.17,0,4.0734,0,1.565,88.595,0,-0.4,0,552.515,568.201,1,-1,0,0,0,0,0,0,0,0,0,-1,0,0,0,0,0,0,0
65711764,25.3,26,0,0,0,-80.6,0.07,0,0,0,1,0,0.17,0,4.0734,0,266985,274565,0,0,24,0,0,65711690,0.17,0,4.0734,0,1.571,88.941,0,-0.9,0,552.515,568.201,1,-1,0,0,0,0,0,0,0,0,0,-1,0,0,0,0,0,0,0
65711844,25.2,26,0,0,0,-81.5,0.04,0,0,0,1,0,0.17,0,4.0734,0,266985,274565,0,0,24,0,0,65711764,0.17,0,4.0734,0,1.55,87.749,0,-0.31,0,552.515,568.201,1,-1,0,0,0,0,0,0,0,0,0,-1,0,0,0,0,0,0,0
65711915,24.5,25.9,0,0,0,-81.1,0.06,0,0,0,1,0,0.17,0,4.0734,0,266985,274565,0,0,24,0,0,65711845,0.17,0,4.0734,0,1.573,89.095,0,0.07,0,552.515,568.201,1,-1,0,0,0,0,0,0,0,0,0,-1,0,0,0,0,0,0,0
65711998,24.6,26.2,0,0,0,-82.9,0,0,0,0,1,0,0.17,0,4.0734,0,266985,274565,0,0,24,0,0,65711916,0.17,0,4.0734,0,1.56,88.364,0,-0.81,0,552.515,568.201,1,-1,0,0,0,0,0,0,0,0,0,-1,0,0,0,0,0,0,0
65712069,25,25.9,0,0,0,-81,0.06,0,0,0,1,0,0.17,0,4.0734,0,266985,274565,0,0,24,0,0,65711998,0.17,0,4.0734,0,1.545,87.479,0,-0.57,0,552.515,568.201,1,-1,0,0,0,0,0,0,0,0,0,-1,0,0,0,0,0,0,0
65712143,24.5,25.9,0,0,0,-81.2,0.07,0,0,0,1,0,0.17,0,4.0734,0,266985,274565,0,0,24,0,0,65712069,0.17,0,4.0734,0,1.538,87.095,0,-0.27,0,552.515,568.201,1,-1,0,0,0,0,0,0,0,0,0,-1,0,0,0,0,0,0,0
65712233,25.2,26,0,0,0,-81.9,0.07,0,0,0,1,0,0.17,0,4.0734,0,266985,274565,0,0,24,0,0,65712144,0.17,0,4.0734,0,1.569,88.826,0,-0.85,0,552.515,568.201,1,-1,0,0,0,0,0,0,0,0,0,-1,0,0,0,0,0,0,0
65712321,25.2,26.4,0,0,0,-85.8,0.06,0,0,0,1,0,0.17,0,4.0734,0,266985,274565,0,0,24,0,0,65712233,0.17,0,4.0734,0,1.568,88.787,0,-0.71,0,552.515,568.201,1,-1,0,0,0,0,0,0,0,0,0,-1,0,0,0,0,0,0,0
65712410,24.4,26.1,0,0,0,-85.9,0.1,0,0,0,1,0,0.17,0,4.0734,0,266985,274565,0,0,24,0,0,65712321,0.17,0,4.0734,0,1.55,87.749,0,0.01,0,552.515,568.201,1,-1,0,0,0,0,0,0,0,0,0,-1,0,0,0,0,0,0,0
65712483,25.1,26.2,0,0,0,-84.3,0.06,0,0,0,1,0,0.17,0,4.0734,0,266985,274565,0,0,24,0,0,65712410,0.17,0,4.0734,0,1.567,88.71,0,0.24,0,552.515,568.201,1,-1,0,0,0,0,0,0,0,0,0,-1,0,0,0,0,0,0,0
65712570,24.9,25.7,0,0,0,-82,0.05,0,0,0,1,0,0.17,0,4.0734,0,266985,274565,0,0,24,0,0,65712484,0.17,0,4.0734,0,1.546,87.556,0,0.65,0,552.515,568.201,1,-1,0,0,0,0,0,0,0,0,0,-1,0,0,0,0,0,0,0
65712665,24.9,26,0,0,0,-81.6,-0.02,0,0,0,1,0,0.17,0,4.0734,0,266985,274565,0,0,24,0,0,65712570,0.17,0,4.0734,0,1.569,88.864,0,0.59,0,552.515,568.201,1,-1,0,0,0,0,0,0,0,0,0,-1,0,0,0,0,0,0,0
65712752,24.9,25.6,0,0,0,-84.1,0.04,0,0,0,1,0,0.17,0,4.0734,0,266985,274565,0,0,24,0,0,65712666,0.17,0,4.0734,0,1.539,87.172,0,0.32,0,552.515,568.201,1,-1,0,0,0,0,0,0,0,0,0,-1,0,0,0,0,0,0,0
65712841,25.2,26,0,0,0,-85,0.03,0,0,0,1,0,0.17,0,4.0734,0,266985,274565,0,0,24,0,0,65712753,0.17,0,4.0734,0,1.554,88.018,0,0.12,0,552.515,568.201,1,-1,0,0,0,0,0,0,0,0,0,-1,0,0,0,0,0,0,0
65712933,24.5,25.8,0,0,0,-84.5,0,0,0,0,1,0,0.17,0,4.0734,0,266985,274565,0,0,24,0,0,65712842,0.17,0,4.0734,0,1.558,88.21,0,-0.57,0,552.515,568.201,1,-1,0,0,0,0,0,0,0,0,0,-1,0,0,0,0,0,0,0
65713004,24.8,25.9,0,0,0,-85.9,0.08,0,0,0,1,0,0.17,0,4.0734,0,266985,274565,0,0,24,0,0,65712933,0.17,0,4.0734,0,1.567,88.749,0,-1.18,0,552.515,568.201,1,-1,0,0,0,0,0,0,0,0,0,-1,0,0,0,0,0,0,0
65713081,24.9,26.6,0,0,0,-87.4,0.02,0,0,0,1,0,0.17,0,4.0734,0,266985,274565,0,0,24,0,0,65713005,0.17,0,4.0734,0,1.527,86.479,0,-0.54,0,552.515,568.201,1,-1,0,0,0,0,0,0,0,0,0,-1,0,0,0,0,0,0,0
65713145,24.8,25.8,0,0,0,-85.9,0.08,0,0,0,1,0,0.17,0,4.0734,0,266985,274565,0,0,24,0,0,65713081,0.17,0,4.0734,0,1.539,87.172,0,-0.25,0,552.515,568.201,1,-1,0,0,0,0,0,0,0,0,0,-1,0,0,0,0,0,0,0
65713205,24.6,26,0,0,0,-88.7,0.01,0,0,0,1,0,0.17,0,4.0734,0,266985,274565,0,0,24,0,0,65713145,0.17,0,4.0734,0,1.528,86.518,0,0.1,0,552.515,568.201,1,-1,0,0,0,0,0,0,0,0,0,-1,0,0,0,0,0,0,0
65713280,24.5,25.9,0,0,0,-80.5,0.05,0,0,0,1,0,0.17,0,4.0734,0,266985,274565,0,0,24,0,0,65713205,0.17,0,4.0734,0,1.551,87.826,0,-0.56,0,552.515,568.201,1,-1,0,0,0,0,0,0,0,0,0,-1,0,0,0,0,0,0,0
65713343,25.1,25.6,0,0,0,-78.7,0.09,0,0,0,1,0,0.17,0,4.0734,0,266985,274565,0,0,24,0,0,65713280,0.17,0,4.0734,0,1.546,87.556,0,-0.37,0,552.515,568.201,1,-1,0,0,0,0,0,0,0,0,0,-1,0,0,0,0,0,0,0
65713398,24.5,25.9,0,0,0,-81.6,0.05,0,0,0,1,0,0.17,0,4.0734,0,266985,274565,0,0,24,0,0,65713343,0.17,0,4.0734,0,1.579,89.403,0,0.03,0,552.515,568.201,1,-1,0,0,0,0,0,0,0,0,0,-1,0,0,0,0,0,0,0
65713459,24.3,25.7,0,0,0,-82,0.01,0,0,0,1,0,0.17,0,4.0734,0,266985,274565,0,0,24,0,0,65713399,0.17,0,4.0734,0,1.57,88.903,0,-0.13,0,552.515,568.201,1,-1,0,0,0,0,0,0,0,0,0,-1,0,0,0,0,0,0,0
65713521,24.9,25.8,0,0,0,-81,0.08,0,0,0,1,0,0.17,0,4.0734,0,266985,274565,0,0,24,0,0,65713460,0.17,0,4.0734,0,1.574,89.133,0,-0.51,0,552.515,568.201,1,-1,0,0,0,0,0,0,0,0,0,-1,0,0,0,0,0,0,0
65713603,24.7,26.1,0,0,0,-82.1,0,0,0,0,1,0,0.17,0,4.0734,0,266985,274565,0,0,24,0,0,65713521,0.17,0,4.0734,0,1.57,88.903,0,0.65,0,552.515,568.201,1,-1,0,0,0,0,0,0,0,0,0,-1,0,0,0,0,0,0,0
65713699,25.1,26.3,0,0,0,-84.3,0.08,0,0,0,1,0,0.17,0,4.0734,0,266985,274565,0,0,24,0,0,65713604,0.17,0,4.0734,0,1.577,89.287,0,-0.66,0,552.515,568.201,1,-1,0,0,0,0,0,0,0,0,0,-1,0,0,0,0,0,0,0
65713791,24.4,26.3,0,0,0,-91,0.05,0,0,0,1,0,0.17,0,4.0734,0,266985,274565,0,0,24,0,0,65713699,0.17,0,4.0734,0,1.558,88.249,0,-0.55,0,552.515,568.201,1,-1,0,0,0,0,0,0,0,0,0,-1,0,0,0,0,0,0,0
65713882,25.2,26.2,0,0,0,-91.6,0.09,0,0,0,1,0,0.17,0,4.0734,0,266985,274565,0,0,24,0,0,65713791,0.17,0,4.0734,0,1.551,87.826,0,0.17,0,552.515,568.201,1,-1,0,0,0,0,0,0,0,0,0,-1,0,0,0,0,0,0,0
65713953,24.2,25.3,0,0,0,-80.8,0.07,0,0,0,1,0,0.17,0,4.0734,0,266985,274565,0,0,24,0,0,65713883,0.17,0,4.0734,0,1.573,89.095,0,0.05,0,552.515,568.201,1,-1,0,0,0,0,0,0,0,0,0,-1,0,0,0,0,0,0,0
65714044,24.7,25.8,0,0,0,-78.9,0.02,0,0,0,1,0,0.17,0,4.0734,0,266985,274565,0,0,24,0,0,65713954,0.17,0,4.0734,0,1.55,87.749,0,-0.71,0,552.515,568.201,1,-1,0,0,0,0,0,0,0,0,0,-1,0,0,0,0,0,0,0
65714118,24.3,26.5,0,0,0,-83.2,0.08,0,0,0,1,0,0.17,0,4.0734,0,266985,274565,0,0,24,0,0,65714044,0.17,0,4.0734,0,1.577,89.326,0,-0.61,0,552.515,568.201,1,-1,0,0,0,0,0,0,0,0,0,-1,0,0,0,0,0,0,0
65714192,24.5,26.2,0,0,0,-80.8,0.09,0,0,0,1,0,0.17,0,4.0734,0,266985,274565,0,0,24,0,0,65714118,0.17,0,4.0734,0,1.551,87.826,0,0.24,0,552.515,568.201,1,-1,0,0,0,0,0,0,0,0,0,-1,0,0,0,0,0,0,0
65714263,25,25.9,0,0,0,-82.9,0.06,0,0,0,1,0,0.17,0,4.0734,0,266985,274565,0,0,24,0,0,65714192,0.17,0,4.0734,0,1.572,89.018,0,-0.58,0,552.515,568.201,1,-1,0,0,0,0,0,0,0,0,0,-1,0,0,0,0,0,0,0
65714335,25.1,25.7,0,0,0,-81.3,0.07,0,0,0,1,0,0.17,0,4.0734,0,266985,274565,0,0,24,0,0,65714264,0.17,0,4.0734,0,1.569,88.826,0,-0.12,0,552.515,568.201,1,-1,0,0,0,0,0,0,0,0,0,-1,0,0,0,0,0,0,0
65714418,25.2,26.1,0,0,0,-81.9,0.07,0,0,0,1,0,0.17,0,4.0734,0,266985,274565,0,0,24,0,0,65714336,0.17,0,4.0734,0,1.57,88.903,0,0.46,0,552.515,568.201,1,-1,0,0,0,0,0,0,0,0,0,-1,0,0,0,0,0,0,0
65714513,25.3,25.9,0,0,0,-83.8,0.04,0,0,0,1,0,0.17,0,4.0734,0,266985,274565,0,0,24,0,0,65714419,0.17,0,4.0734,0,1.545,87.518,0,0.15,0,552.515,568.201,1,-1,0,0,0,0,0,0,0,0,0,-1,0,0,0,0,0,0,0
65714607,24.5,25.5,0,0,0,-83.1,0.08,0,0,0,1,0,0.17,0,4.0734,0,266985,274565,0,0,24,0,0,65714513,0.17,0,4.0734,0,1.548,87.672,0,-0.7,0,552.515,568.201,1,-1,0,0,0,0,0,0,0,0,0,-1,0,0,0,0,0,0,0
65714698,24.4,25.8,0,0,0,-85.4,0.04,0,0,0,1,0,0.17,0,4.0734,0,266985,274565,0,0,24,0,0,65714607,0.17,0,4.0734,0,1.549,87.71,0,-0.24,0,552.515,568.201,1,-1,0,0,0,0,0,0,0,0,0,-1,0,0,0,0,0,0,0
65714770,24.4,26.2,0,0,0,-86.8,0.05,0,0,0,1,0,0.17,0,4.0734,0,266985,274565,0,0,24,0,0,65714698,0.17,0,4.0734,0,1.565,88.633,0,-0.02,0,552.515,568.201,1,-1,0,0,0,0,0,0,0,0,0,-1,0,0,0,0,0,0,0
65714855,25.1,26.2,0,0,0,-83.1,-0.04,0,0,0,1,0,0.17,0,4.0734,0,266985,274565,0,0,24,0,0,65714771,0.17,0,4.0734,0,1.567,88.749,0,-0.05,0,552.515,568.201,1,-1,0,0,0,0,0,0,0,0,0,-1,0,0,0,0,0,0,0
65714948,24.9,25.8,0,0,0,-82.6,0,0,0,0,1,0,0.17,0,4.0734,0,266985,274565,0,0,24,0,0,65714856,0.17,0,4.0734,0,1.573,89.057,0,0.34,0,552.515,568.201,1,-1,0,0,0,0,0,0,0,0,0,-1,0,0,0,0,0,0,0
65715054,24.7,25.4,0,0,0,-80,0.04,0,0,0,1,0,0.17,0,4.0734,0,266985,274565,0,0,24,0,0,65714948,0.17,0,4.0734,0,1.533,86.787,0,-0.09,0,552.515,568.201,1,-1,0,0,0,0,0,0,0,0,0,-1,0,0,0,0,0,0,0
65715151,25.3,26.3,0,0,0,-84.6,0.03,0,0,0,1,0,0.17,0,4.0734,0,266985,274565,0,0,24,0,0,65715054,0.17,0,4.0734,0,1.569,88.826,0,-0.12,0,552.515,568.201,1,-1,0,0,0,0,0,0,0,0,0,-1,0,0,0,0,0,0,0
65715232,24.5,25.5,0,0,0,-76.7,0.07,0,0,0,1,0,0.17,0,4.0734,0,266985,274565,0,0,24,0,0,65715151,0.17,0,4.0734,0,1.55,87.749,0,0.62,0,552.515,568.201,1,-1,0,0,0,0,0,0,0,0,0,-1,0,0,0,0,0,0,0
65715319,25.2,25.6,0,0,0,-81.8,0.06,0,0,0,1,0,0.17,0,4.0734,0,266985,274565,0,0,24,0,0,65715233,0.17,0,4.0734,0,1.545,87.479,0,-0.65,0,552.515,568.201,1,-1,0,0,0,0,0,0,0,0,0,-1,0,0,0,0,0,0,0
65715420,24.7,26.2,0,0,0,-84.1,0.04,0,0,0,1,0,0.17,0,4.0734,0,266985,274565,0,0,24,0,0,65715320,0.17,0,4.0734,0,1.541,87.287,0,0.55,0,552.515,568.201,1,-1,0,0,0,0,0,0,0,0,0,-1,0,0,0,0,0,0,0
65715516,24.6,25.4,0,0,0,-77.7,0.14,0,0,0,1,0,0.17,0,4.0734,0,266985,274565,0,0,24,0,0,65715421,0.17,0,4.0734,0,1.556,88.095,0,0.22,0,552.515,568.201,1,-1,0,0,0,0,0,0,0,0,0,-1,0,0,0,0,0,0,0
65715589,25.5,25.6,0,0,0,-81.3,0.03,0,0,0,1,0,0.17,0,4.0734,0,266985,274565,0,0,24,0,0,65715516,0.17,0,4.0734,0,1.571,88.941,0,-0.92,0,552.515,568.201,1,-1,0,0,0,0,0,0,0,0,0,-1,0,0,0,0,0,0,0
65715677,24.5,25.6,0,0,0,-79.7,0.06,0,0,0,1,0,0.17,0,4.0734,0,266985,274565,0,0,24,0,0,65715591,0.17,0,4.0734,0,1.553,87.941,0,0.21,0,552.515,568.201,1,-1,0,0,0,0,0,0,0,0,0,-1,0,0,0,0,0,0,0
65715754,25.2,25.9,0,0,0,-81.4,0.04,0,0,0,1,0,0.17,0,4.0734,0,266985,274565,0,0,24,0,0,65715677,0.17,0,4.0734,0,1.573,89.095,0,-0.09,0,552.515,568.201,1,-1,0,0,0,0,0,0,0,0,0,-1,0,0,0,0,0,0,0
65715867,24.4,25.8,0,0,0,-77.6,0.03,0,0,0,1,0,0.17,0,4.0734,0,266985,274565,0,0,24,0,0,65715763,0.17,0,4.0734,0,1.552,87.903,0,0.03,0,552.515,568.201,1,-1,0,0,0,0,0,0,0,0,0,-1,0,0,0,0,0,0,0
65715956,24.8,26,0,0,0,-78.5,0.01,0,0,0,1,0,0.17,0,4.0734,0,266986,274566,0,0,24,0,0,65715868,0.17,0,4.0734,0,1.565,88.633,0,-0.07,0,552.515,568.201,1,-1,0,0,0,0,0,0,0,0,0,-1,0,0,0,0,0,0,0
65716034,25.2,26.5,0,0,0,-85,-0.07,0,0,0,1,0,0.17,0,4.0734,0,266986,274566,0,0,24,0,0,65715956,0.17,0,4.0734,0,1.531,86.71,0,-0.56,0,552.517,568.203,1,-1,0,0,0,0,0,0,0,0,0,-1,0,0,0,0,0,0,0
65716108,25.1,25.8,0,0,0,-83.9,-0.16,0,0,0,1,0,0.17,0,4.0734,0,266986,274566,0,0,24,0,0,65716034,0.17,0,4.0734,0,1.539,87.133,0,-0.11,0,552.517,568.203,1,-1,0,0,0,0,0,0,0,0,0,-1,0,0,0,0,0,0,0
65716164,24.8,26.6,0,0,0,-84.8,-0.01,0,0,0,1,0,0.17,0,4.0734,0,266986,274566,0,0,24,0,0,65716109,0.17,0,4.0734,0,1.574,89.133,0,-0.23,0,552.517,568.203,1,-1,0,0,0,0,0,0,0,0,0,-1,0,0,0,0,0,0,0
65716236,25,26.4,0,0,0,-86.5,-0.05,0,0,0,1,0,0.17,0,4.0734,0,266986,274566,0,0,24,0,0,65716165,0.17,0,4.0734,0,1.533,86.825,0,-0.55,0,552.517,568.203,1,-1,0,0,0,0,0,0,0,0,0,-1,0,0,0,0,0,0,0
65716307,24.7,26.6,0,0,0,-87.4,-0.07,0,0,0,1,0,0.17,0,4.0734,0,266986,274566,0,0,24,0,0,65716237,0.17,0,4.0734,0,1.577,89.326,0,-0.48,0,552.517,568.203,1,-1,0,0,0,0,0,0,0,0,0,-1,0,0,0,0,0,0,0
65716395,24.9,25.8,0,0,0,-86.5,-0.03,0,0,0,1,0,0.17,0,4.0734,0,266986,274566,0,0,24,0,0,65716308,0.17,0,4.0734,0,1.533,86.787,0,-0.34,0,552.517,568.203,1,-1,0,0,0,0,0,0,0,0,0,-1,0,0,0,0,0,0,0
65716467,25.3,26.1,0,0,0,-87.4,-0.02,0,0,0,1,0,0.17,0,4.0734,0,266986,274566,0,0,24,0,0,65716395,0.17,0,4.0734,0,1.534,86.864,0,0.35,0,552.517,568.203,1,-1,0,0,0,0,0,0,0,0,0,-1,0,0,0,0,0,0,0
65716550,24.7,26.3,0,0,0,-81.7,-0.09,0,0,0,1,0,0.17,0,4.0734,0,266986,274566,0,0,24,0,0,65716468,0.17,0,4.0734,0,1.551,87.826,0,-0.18,0,552.517,568.203,1,-1,0,0,0,0,0,0,0,0,0,-1,0,0,0,0,0,0,0
65716621,25.2,25.5,0,0,0,-83,-0.08,0,0,0,1,0,0.17,0,4.0734,0,266986,274566,0,0,24,0,0,65716550,0.17,0,4.0734,0,1.551,87.826,0,0.6,0,552.517,568.203,1,-1,0,0,0,0,0,0,0,0,0,-1,0,0,0,0,0,0,0
65716704,24.7,26.4,0,0,0,-85.5,-0.05,0,0,0,1,0,0.17,0,4.0734,0,266986,274566,0,0,24,0,0,65716622,0.17,0,4.0734,0,1.565,88.633,0,-1.11,0,552.517,568.203,1,-1,0,0,0,0,0,0,0,0,0,-1,0,0,0,0,0,0,0
65716778,24.6,25.8,0,0,0,-83.3,-0.04,0,0,0,1,0,0.17,0,4.0734,0,266986,274566,0,0,24,0,0,65716704,0.17,0,4.0734,0,1.576,89.249,0,0.35,0,552.517,568.203,1,-1,0,0,0,0,0,0,0,0,0,-1,0,0,0,0,0,0,0
65716871,24.7,25.6,0,0,0,-81.3,0.04,0,0,0,161,0,0.17,0,4.0734,0,266988,274568,0,0,24,0,0,65716778,0.17,0,4.0734,0,1.571,88.941,0,-0.54,0,552.517,568.203,1,-1,0,0,0,0,0,0,0,0,0,-1,0,0,0,0,0,0,0
65716967,25.3,25.6,0,0,0,-80.9,0.05,0,0,0,60,0,0.17,0,4.0734,0,266988,274568,0,0,24,0,0,65716872,0.17,0,4.0734,0,1.547,87.595,0,-0.53,0.033,552.521,568.208,1,-1,0,0,0,0,0,0,0,0,0,-1,0,0,0,0,0,0,0
65717061,24.9,26.4,0,0,0,-84.4,0.02,0,0,0,50,0,0.17,0,4.0734,0,266988,274568,0,0,24,0,0,65716968,0.17,0,4.0734,0,1.551,87.826,0,-0.24,0.012,552.521,568.208,1,-1,0,0,0,0,0,0,0,0,0,-1,0,0,0,0,0,0,0
65717144,25.2,26.4,0,0,0,-84.3,0.05,0,0,0,28,0,0.17,0,4.0734,0,266988,274568,0,0,24,0,0,65717062,0.17,0,4.0734,0,1.526,86.441,0,-0.28,0.01,552.521,568.208,1,-1,0,0,0,0,0,0,0,0,0,-1,0,0,0,0,0,0,0
65717195,25.1,25.5,0,0,0,-82.6,-0.01,0,0,0,26,0,0.17,0,4.0734,0,266988,274568,0,0,24,0,0,65717175,0.17,0,4.0734,0,1.542,87.325,0,-0.38,0.005,552.521,568.208,1,-1,0,0,0,0,0,0,0,0,0,-1,0,0,0,0,0,0,0
65717252,24.4,26.4,0,0,0,-82.7,0.06,0,0,0,23,0,0.17,0,4.0734,0,266988,274568,0,0,24,0,0,65717205,0.17,0,4.0734,0,1.545,87.479,0,-0.06,0.005,552.521,568.208,1,-1,0,0,0,0,0,0,0,0,0,-1,0,0,0,0,0,0,0
65717323,24.5,25.3,0,0,0,-78.9,0.09,0,0,0,20,0,0.17,0,4.0734,0,266988,274568,0,0,24,0,0,65717252,0.17,0,4.0734,0,1.567,88.71,0,0,0.004,552.521,568.208,1,-1,0,0,0,0,0,0,0,0,0,-1,0,0,0,0,0,0,0
65717394,25,25.4,0,0,0,-80.6,0.02,0,0,0,16,0,0.17,0,4.0734,0,266988,274568,0,0,24,0,0,65717324,0.17,0,4.0734,0,1.547,87.595,0,0.35,0.004,552.521,568.208,1,-1,0,0,0,0,0,0,0,0,0,-1,0,0,0,0,0,0,0
65717465,24.4,25.9,0,0,0,-79.6,-0.04,0,0,0,14,0,0.17,0,4.0734,0,266988,274568,0,0,24,0,0,65717394,0.17,0,4.0734,0,1.537,87.056,0,-0.42,0.003,552.521,568.208,1,-1,0,0,0,0,0,0,0,0,0,-1,0,0,0,0,0,0,0
65717555,24.7,26.2,0,0,0,-81.2,0.03,0,0,0,13,0,0.17,0,4.0734,0,266988,274568,0,0,24,0,0,65717466,0.17,0,4.0734,0,1.567,88.749,0,-0.47,0.003,552.521,568.208,1,-1,0,0,0,0,0,0,0,0,0,-1,0,0,0,0,0,0,0
65717628,25.2,25.7,0,0,0,-79.8,-0.01,0,0,0,11,0,0.17,0,4.0734,0,266988,274568,0,0,24,0,0,65717556,0.17,0,4.0734,0,1.55,87.749,0,0.77,0.002,552.521,568.208,1,-1,0,0,0,0,0,0,0,0,0,-1,0,0,0,0,0,0,0
65717710,24.3,25.9,0,0,0,-80.2,0.1,0,0,0,11,0,0.17,0,4.0734,0,266988,274568,0,0,24,0,0,65717628,0.17,0,4.0734,0,1.552,87.864,0,0.26,0.002,552.521,568.208,1,-1,0,0,0,0,0,0,0,0,0,-1,0,0,0,0,0,0,0
65717804,24.7,26,0,0,0,-82.1,0,0,0,0,10,0,0.17,0,4.0734,0,266988,274568,0,0,24,0,0,65717711,0.17,0,4.0734,0,1.571,88.941,0,-0.54,0.002,552.521,568.208,1,-1,0,0,0,0,0,0,0,0,0,-1,0,0,0,0,0,0,0
65717896,24.6,25.6,0,0,0,-81,0.03,0,0,0,8,0,0.17,0,4.0734,0,266988,274568,0,0,24,0,0,65717804,0.17,0,4.0734,0,1.556,88.095,0,-0.46,0.002,552.521,568.208,1,-1,0,0,0,0,0,0,0,0,0,-1,0,0,0,0,0,0,0
65717968,24.4,26.1,0,0,0,-82.7,-0.01,0,0,0,8,0,0.17,0,4.0734,0,266988,274568,0,0,24,0,0,65717897,0.17,0,4.0734,0,1.571,88.98,0,-0.7,0.001,552.521,568.208,1,-1,0,0,0,0,0,0,0,0,0,-1,0,0,0,0,0,0,0
65718061,25.2,25.6,0,0,0,-81.3,0.05,0,0,0,8,0,0.17,0,4.0734,0,266988,274568,0,0,24,0,0,65717969,0.17,0,4.0734,0,1.575,89.172,0,0.34,0.001,552.521,568.208,1,-1,0,0,0,0,0,0,0,0,0,-1,0,0,0,0,0,0,0
65718143,25,25.3,0,0,0,-81.6,0,0,0,0,7,0,0.17,0,4.0734,0,266988,274568,0,0,24,0,0,65718061,0.17,0,4.0734,0,1.558,88.249,0,-0.19,0.001,552.521,568.208,1,-1,0,0,0,0,0,0,0,0,0,-1,0,0,0,0,0,0,0
65718193,25.2,26,0,0,0,-81.9,-0.04,0,0,0,6,0,0.17,0,4.0734,0,266988,274568,0,0,24,0,0,65718143,0.17,0,4.0734,0,1.545,87.479,0,0.06,0.001,552.521,568.208,1,-1,0,0,0,0,0,0,0,0,0,-1,0,0,0,0,0,0,0
65718274,24.4,26,0,0,0,-83.4,-0.04,0,0,0,6,0,0.17,0,4.0734,0,266988,274568,0,0,24,0,0,65718193,0.17,0,4.0734,0,1.575,89.21,0,0.3,0.001,552.521,568.208,1,-1,0,0,0,0,0,0,0,0,0,-1,0,0,0,0,0,0,0
65718368,24.5,26,0,0,0,-83.3,-0.04,0,0,0,6,0,0.17,0,4.0734,0,266988,274568,0,0,24,0,0,65718275,0.17,0,4.0734,0,1.56,88.364,0,0.43,0.001,552.521,568.208,1,-1,0,0,0,0,0,0,0,0,0,-1,0,0,0,0,0,0,0
65718458,25.1,26,0,0,0,-89.1,0.01,0,0,0,5,0,0.17,0,4.0734,0,266988,274568,0,0,24,0,0,65718368,0.17,0,4.0734,0,1.567,88.71,0,-0.14,0.001,552.521,568.208,1,-1,0,0,0,0,0,0,0,0,0,-1,0,0,0,0,0,0,0
65718531,25.2,25.9,0,0,0,-91.4,-0.01,0,0,0,5,0,0.17,0,4.0734,0,266988,274568,0,0,24,0,0,65718458,0.17,0,4.0734,0,1.532,86.748,0,1.01,0.001,552.521,568.208,1,-1,0,0,0,0,0,0,0,0,0,-1,0,0,0,0,0,0,0
65718623,25.2,26.1,0,0,0,-89.2,0.01,0,0,0,5,0,0.17,0,4.0734,0,266988,274568,0,0,24,0,0,65718531,0.17,0,4.0734,0,1.56,88.364,0,-0.42,0.001,552.521,568.208,1,-1,0,0,0,0,0,0,0,0,0,-1,0,0,0,0,0,0,0
65718708,25,26,0,0,0,-87.5,-0.05,0,0,0,5,0,0.17,0,4.0734,0,266988,274568,0,0,24,0,0,65718623,0.17,0,4.0734,0,1.543,87.402,0,-0.65,0.001,552.521,568.208,1,-1,0,0,0,0,0,0,0,0,0,-1,0,0,0,0,0,0,0
65718800,25.4,26,0,0,0,-87.9,0,0,0,0,4,0,0.17,0,4.0734,0,266988,274568,0,0,24,0,0,65718708,0.17,0,4.0734,0,1.542,87.325,0,-0.07,0.001,552.521,568.208,1,-1,0,0,0,0,0,0,0,0,0,-1,0,0,0,0,0,0,0
65718877,25,25.9,0,0,0,-82.2,0.03,0,0,0,4,0,0.17,0,4.0734,0,266989,274569,0,0,24,0,0,65718801,0.17,0,4.0734,0,1.541,87.249,0,-0.06,0.001,552.521,568.208,1,-1,0,0,0,0,0,0,0,0,0,-1,0,0,0,0,0,0,0
65718960,25.2,25.6,0,0,0,-80.8,0,0,0,0,4,0,0.17,0,4.0734,0,266989,274569,0,0,24,0,0,65718877,0.17,0,4.0734,0,1.534,86.864,0,0.65,0.001,552.523,568.21,1,-1,0,0,0,0,0,0,0,0,0,-1,0,0,0,0,0,0,0
65719039,24.7,26.2,0,0,0,-81.5,0.04,0,0,0,4,0,0.17,0,4.0734,0,266989,274569,0,0,24,0,0,65718961,0.17,0,4.0734,0,1.533,86.825,0,0.1,0.001,552.523,568.21,1,-1,0,0,0,0,0,0,0,0,0,-1,0,0,0,0,0,0,0
65719110,25,26.3,0,0,0,-81.3,-0.02,0,0,0,4,0,0.17,0,4.0734,0,266989,274569,0,0,24,0,0,65719039,0.17,0,4.0734,0,1.559,88.287,0,-0.17,0.001,552.523,568.21,1,-1,0,0,0,0,0,0,0,0,0,-1,0,0,0,0,0,0,0
65719157,24.4,26.1,0,0,0,-83,0,0,0,0,4,0,0.17,0,4.0734,0,266989,274569,0,0,24,0,0,65719111,0.17,0,4.0734,0,1.575,89.172,0,0.29,0.001,552.523,568.21,1,-1,0,0,0,0,0,0,0,0,0,-1,0,0,0,0,0,0,0
65719243,24.8,26.4,0,0,0,-86.7,0.07,0,0,0,4,0,0.17,0,4.0734,0,266989,274569,0,0,24,0,0,65719158,0.17,0,4.0734,0,1.536,86.979,0,0.21,0.001,552.523,568.21,1,-1,0,0,0,0,0,0,0,0,0,-1,0,0,0,0,0,0,0
65719315,24.9,26,0,0,0,-84.7,0.04,0,0,0,4,0,0.17,0,4.0734,0,266989,274569,0,0,24,0,0,65719244,0.17,0,4.0734,0,1.534,86.864,0,-1.3,0.001,552.523,568.21,1,-1,0,0,0,0,0,0,0,0,0,-1,0,0,0,0,0,0,0
65719405,24.8,25.5,0,0,0,-81.9,0,0,0,0,4,0,0.17,0,4.0734,0,266989,274569,0,0,24,0,0,65719316,0.17,0,4.0734,0,1.548,87.672,0,0.86,0.001,552.523,568.21,1,-1,0,0,0,0,0,0,0,0,0,-1,0,0,0,0,0,0,0
65719501,25.1,25.8,0,0,0,-86.2,0.04,0,0,0,4,0,0.17,0,4.0734,0,266989,274569,0,0,24,0,0,65719405,0.17,0,4.0734,0,1.55,87.787,0,0.03,0.001,552.523,568.21,1,-1,0,0,0,0,0,0,0,0,0,-1,0,0,0,0,0,0,0
65719591,24.4,26.2,0,0,0,-88.6,0.03,0,0,0,5,0,0.17,0,4.0734,0,266990,274570,0,0,24,0,0,65719501,0.17,0,4.0734,0,1.536,86.979,0,-0.18,0.001,552.523,568.21,1,-1,0,0,0,0,0,0,0,0,0,-1,0,0,0,0,0,0,0
65719686,24.4,26.6,0,0,0,-90.5,0.04,0,0,0,5,0,0.17,0,4.0734,0,266990,274570,0,0,24,0,0,65719591,0.17,0,4.0734,0,1.561,88.403,0,-0.04,0.001,552.525,568.212,1,-1,0,0,0,0,0,0,0,0,0,-1,0,0,0,0,0,0,0
65719778,25.3,25.4,0,0,0,-83.4,0.04,0,0,0,5,0,0.17,0,4.0734,0,266990,274570,0,0,24,0,0,65719687,0.17,0,4.0734,0,1.561,88.403,0,0.08,0.001,552.525,568.212,1,-1,0,0,0,0,0,0,0,0,0,-1,0,0,0,0,0,0,0
65719872,24.5,26.4,0,0,0,-84.4,0.1,0,0,0,5,0,0.17,0,4.0734,0,266990,274570,0,0,24,0,0,65719779,0.17,0,4.0734,0,1.547,87.595,0,-0.7,0.001,552.525,568.212,1,-1,0,0,0,0,0,0,0,0,0,-1,0,0,0,0,0,0,0
65719962,24.9,26.5,0,0,0,-85.4,0.04,0,0,0,5,0,0.17,0,4.0734,0,266990,274570,0,0,24,0,0,65719872,0.17,0,4.0734,0,1.569,88.864,0,-0.49,0.001,552.525,568.212,1,-1,0,0,0,0,0,0,0,0,0,-1,0,0,0,0,0,0,0
65720067,24.6,26,0,0,0,-84.8,0.02,0,0,0,5,0,0.17,0,4.0734,0,266990,274570,0,0,24,0,0,65719963,0.17,0,4.0734,0,1.524,86.325,0,-0.24,0.001,552.525,568.212,1,-1,0,0,0,0,0,0,0,0,0,-1,0,0,0,0,0,0,0
65720148,24.5,25.7,0,0,0,-83.4,0.06,0,0,0,5,0,0.17,0,4.0734,0,266990,274570,0,0,24,0,0,65720067,0.17,0,4.0734,0,1.571,88.98,0,-0.49,0.001,552.525,568.212,1,-1,0,0,0,0,0,0,0,0,0,-1,0,0,0,0,0,0,0
65720239,24.4,25.7,0,0,0,-82.1,0.06,0,0,0,5,0,0.17,0,4.0734,0,266990,274570,0,0,24,0,0,65720148,0.17,0,4.0734,0,1.57,88.903,0,-0.3,0.001,552.525,568.212,1,-1,0,0,0,0,0,0,0,0,0,-1,0,0,0,0,0,0,0
65720316,25,26.4,0,0,0,-84.7,0.05,0,0,0,5,0,0.17,0,4.0734,0,266990,274570,0,0,24,0,0,65720239,0.17,0,4.0734,0,1.572,89.018,0,-0.81,0.001,552.525,568.212,1,-1,0,0,0,0,0,0,0,0,0,-1,0,0,0,0,0,0,0
65720400,24.7,25.6,0,0,0,-79.5,0.03,0,0,0,5,0,0.17,0,4.0734,0,266990,274570,0,0,24,0,0,65720317,0.17,0,4.0734,0,1.572,89.018,0,-0.69,0.001,552.525,568.212,1,-1,0,0,0,0,0,0,0,0,0,-1,0,0,0,0,0,0,0
65720501,25.4,25.6,0,0,0,-82.3,0.01,0,0,0,5,0,0.17,0,4.0734,0,266990,274570,0,0,24,0,0,65720400,0.17,0,4.0734,0,1.569,88.826,0,-0.53,0.001,552.525,568.212,1,-1,0,0,0,0,0,0,0,0,0,-1,0,0,0,0,0,0,0
65720591,25,26.4,0,0,0,-82.3,0.02,0,0,0,5,0,0.17,0,4.0734,0,266990,274570,0,0,24,0,0,65720502,0.17,0,4.0734,0,1.554,87.979,0,-0.72,0.001,552.525,568.212,1,-1,0,0,0,0,0,0,0,0,0,-1,0,0,0,0,0,0,0
65720682,24.7,25.4,0,0,0,-80.3,0.09,0,0,0,5,0,0.17,0,4.0734,0,266990,274570,0,0,24,0,0,65720591,0.17,0,4.0734,0,1.537,87.018,0,0.45,0.001,552.525,568.212,1,-1,0,0,0,0,0,0,0,0,0,-1,0,0,0,0,0,0,0
65720754,24.5,26.1,0,0,0,-82.9,0.08,0,0,0,5,0,0.17,0,4.0734,0,266990,274570,0,0,24,0,0,65720682,0.17,0,4.0734,0,1.535,86.902,0,-0.2,0.001,552.525,568.212,1,-1,0,0,0,0,0,0,0,0,0,-1,0,0,0,0,0,0,0
65720830,24.7,26,0,0,0,-87,0.07,0,0,0,5,0,0.17,0,4.0734,0,266990,274570,0,0,24,0,0,65720755,0.17,0,4.0734,0,1.573,89.095,0,-0.07,0.001,552.525,568.212,1,-1,0,0,0,0,0,0,0,0,0,-1,0,0,0,0,0,0,0
65720906,25.2,25.8,0,0,0,-87.9,0.06,0,0,0,5,0,0.17,0,4.0734,0,266990,274570,0,0,24,0,0,65720830,0.17,0,4.0734,0,1.547,87.595,0,0.3,0.001,552.525,568.212,1,-1,0,0,0,0,0,0,0,0,0,-1,0,0,0,0,0,0,0
65720994,25.1,25.7,0,0,0,-83,0.03,0,0,0,5,0,0.17,0,4.0734,0,266990,274570,0,0,24,0,0,65720906,0.17,0,4.0734,0,1.55,87.749,0,0,0.001,552.525,568.212,1,-1,0,0,0,0,0,0,0,0,0,-1,0,0,0,0,0,0,0
65721095,24.8,26.1,0,0,0,-86.2,0.04,0,0,0,5,0,0.17,0,4.0734,0,266990,274570,0,0,24,0,0,65720994,0.17,0,4.0734,0,1.538,87.095,0,0.16,0.001,552.525,568.212,1,-1,0,0,0,0,0,0,0,0,0,-1,0,0,0,0,0,0,0
65721174,24.5,25.5,0,0,0,-83.5,0.08,0,0,0,5,0,0.17,0,4.0734,0,266990,274570,0,0,24,0,0,65721095,0.17,0,4.0734,0,1.554,88.018,0,0.65,0.001,552.525,568.212,1,-1,0,0,0,0,0,0,0,0,0,-1,0,0,0,0,0,0,0
65721268,24.8,25.4,0,0,0,-82.2,0.06,0,0,0,5,0,0.17,0,4.0734,0,266990,274570,0,0,24,0,0,65721175,0.17,0,4.0734,0,1.562,88.441,0,0.8,0.001,552.525,568.212,1,-1,0,0,0,0,0,0,0,0,0,-1,0,0,0,0,0,0,0
65721344,24.3,26.2,0,0,0,-84.3,0.07,0,0,0,5,0,0.17,0,4.0734,0,266990,274570,0,0,24,0,0,65721268,0.17,0,4.0734,0,1.557,88.172,0,-0.58,0.001,552.525,568.212,1,-1,0,0,0,0,0,0,0,0,0,-1,0,0,0,0,0,0,0
65721429,24.6,25.6,0,0,0,-82.3,0.11,0,0,0,5,0,0.17,0,4.0734,0,266990,274570,0,0,24,0,0,65721345,0.17,0,4.0734,0,1.53,86.633,0,-0.51,0.001,552.525,568.212,1,-1,0,0,0,0,0,0,0,0,0,-1,0,0,0,0,0,0,0
65721501,24.6,26,0,0,0,-81.3,0.08,0,0,0,4,0,0.17,0,4.0734,0,266990,274570,0,0,24,0,0,65721430,0.17,0,4.0734,0,1.567,88.749,0,0.6,0.001,552.525,568.212,1,-1,0,0,0,0,0,0,0,0,0,-1,0,0,0,0,0,0,0
65721587,25.1,25.9,0,0,0,-78.7,0.06,0,0,0,4,0,0.17,0,4.0734,0,266990,274570,0,0,24,0,0,65721502,0.17,0,4.0734,0,1.571,88.98,0,-0.15,0,552.525,568.212,1,-1,0,0,0,0,0,0,0,0,0,-1,0,0,0,0,0,0,0
65721662,24.9,26,0,0,0,-85.2,0.07,0,0,0,4,0,0.17,0,4.0734,0,266990,274570,0,0,24,0,0,65721587,0.17,0,4.0734,0,1.538,87.095,0,-0.1,0,552.525,568.212,1,-1,0,0,0,0,0,0,0,0,0,-1,0,0,0,0,0,0,0
65721742,24.4,25.6,0,0,0,-89.2,0.06,0,0,0,4,0,0.17,0,4.0734,0,266990,274570,0,0,24,0,0,65721663,0.17,0,4.0734,0,1.571,88.98,0,0.22,0,552.525,568.212,1,-1,0,0,0,0,0,0,0,0,0,-1,0,0,0,0,0,0,0
65721829,25.2,26.1,0,0,0,-92.6,0.09,0,0,0,4,0,0.17,0,4.0734,0,266990,274570,0,0,24,0,0,65721742,0.17,0,4.0734,0,1.567,88.71,0,-0.4,0,552.525,568.212,1,-1,0,0,0,0,0,0,0,0,0,-1,0,0,0,0,0,0,0
65721904,24.4,25.4,0,0,0,-90.4,0.05,0,0,0,4,0,0.17,0,4.0734,0,266990,274570,0,0,24,0,0,65721829,0.17,0,4.0734,0,1.53,86.633,0,0.68,0,552.525,568.212,1,-1,0,0,0,0,0,0,0,0,0,-1,0,0,0,0,0,0,0
65721994,24.8,26,0,0,0,-90.4,0.05,0,0,0,3,0,0.17,0,4.0734,0,266990,274570,0,0,24,0,0,65721904,0.17,0,4.0734,0,1.578,89.364,0,0.32,0,552.525,568.212,1,-1,0,0,0,0,0,0,0,0,0,-1,0,0,0,0,0,0,0
65722088,25.1,25.4,0,0,0,-85.9,0.07,0,0,0,3,0,0.17,0,4.0734,0,266990,274570,0,0,24,0,0,65721995,0.17,0,4.0734,0,1.561,88.403,0,0.21,0,552.525,568.212,1,-1,0,0,0,0,0,0,0,0,0,-1,0,0,0,0,0,0,0
65722183,25.3,25.9,0,0,0,-87,0.07,0,0,0,3,0,0.17,0,4.0734,0,266990,274570,0,0,24,0,0,65722089,0.17,0,4.0734,0,1.575,89.21,0,-1.06,0,552.525,568.212,1,-1,0,0,0,0,0,0,0,0,0,-1,0,0,0,0,0,0,0
65722292,24.5,25.9,0,0,0,-79.9,0.1,0,0,0,3,0,0.17,0,4.0734,0,266990,274570,0,0,24,0,0,65722183,0.17,0,4.0734,0,1.532,86.748,0,-0.06,0,552.525,568.212,1,-1,0,0,0,0,0,0,0,0,0,-1,0,0,0,0,0,0,0
65722431,24.6,25.4,0,0,0,-80.2,0.02,0,0,0,3,0,0.17,0,4.0734,0,266990,274570,0,0,24,0,0,65722292,0.17,0,4.0734,0,1.564,88.556,0,-0.47,0,552.525,568.212,1,-1,0,0,0,0,0,0,0,0,0,-1,0,0,0,0,0,0,0
65722515,24.9,25.8,0,0,0,-81.3,0.09,0,0,0,3,0,0.17,0,4.0734,0,266990,274570,0,0,24,0,0,65722432,0.17,0,4.0734,0,1.565,88.595,0,0.46,0,552.525,568.212,1,-1,0,0,0,0,0,0,0,0,0,-1,0,0,0,0,0,0,0
65722598,24.6,26.4,0,0,0,-85.3,0.05,0,0,0,3,0,0.17,0,4.0734,0,266990,274570,0,0,24,0,0,65722515,0.17,0,4.0734,0,1.533,86.787,0,-0.42,0,552.525,568.212,1,-1,0,0,0,0,0,0,0,0,0,-1,0,0,0,0,0,0,0
65722692,25.2,25.7,0,0,0,-86.4,0.03,0,0,0,3,0,0.17,0,4.0734,0,266990,274570,0,0,24,0,0,65722599,0.17,0,4.0734,0,1.539,87.133,0,0.18,0,552.525,568.212,1,-1,0,0,0,0,0,0,0,0,0,-1,0,0,0,0,0,0,0
65722784,24.3,26.1,0,0,0,-89.7,0.04,0,0,0,2,0,0.17,0,4.0734,0,266990,274570,0,0,24,0,0,65722693,0.17,0,4.0734,0,1.547,87.595,0,-0.51,0,552.525,568.212,1,-1,0,0,0,0,0,0,0,0,0,-1,0,0,0,0,0,0,0
65722879,24.7,25.5,0,0,0,-87.7,0.07,0,0,0,2,0,0.17,0,4.0734,0,266990,274570,0,0,24,0,0,65722785,0.17,0,4.0734,0,1.56,88.364,0,-0.14,0,552.525,568.212,1,-1,0,0,0,0,0,0,0,0,0,-1,0,0,0,0,0,0,0
65722974,25,26.1,0,0,0,-85.6,0.04,0,0,0,2,0,0.17,0,4.0734,0,266990,274570,0,0,24,0,0,65722879,0.17,0,4.0734,0,1.536,86.979,0,0.32,0,552.525,568.212,1,-1,0,0,0,0,0,0,0,0,0,-1,0,0,0,0,0,0,0
65723124,24.5,26.1,0,0,0,-84.7,0.09,0,0,0,2,0,0.17,0,4.0734,0,266990,274570,0,0,24,0,0,65722975,0.17,0,4.0734,0,1.541,87.249,0,0.02,0,552.525,568.212,1,-1,0,0,0,0,0,0,0,0,0,-1,0,0,0,0,0,0,0
65723224,24.6,26,0,0,0,-85.3,0.05,0,0,0,2,0,0.17,0,4.0734,0,266990,274570,0,0,24,0,0,65723124,0.17,0,4.0734,0,1.559,88.287,0,-0.19,0,552.525,568.212,1,-1,0,0,0,0,0,0,0,0,0,-1,0,0,0,0,0,0,0
65723268,24.5,26.1,0,0,0,-86.2,-0.01,0,0,0,2,0,0.17,0,4.0734,0,266990,274570,0,0,24,0,0,65723224,0.17,0,4.0734,0,1.546,87.556,0,1.02,0,552.525,568.212,1,-1,0,0,0,0,0,0,0,0,0,-1,0,0,0,0,0,0,0
65723310,24.6,25.6,0,0,0,-83.5,0.05,0,0,0,2,0,0.17,0,4.0734,0,266990,274570,0,0,24,0,0,65723268,0.17,0,4.0734,0,1.533,86.787,0,0.29,0,552.525,568.212,1,-1,0,0,0,0,0,0,0,0,0,-1,0,0,0,0,0,0,0
65723362,24.4,25.8,0,0,0,-80.6,0.07,0,0,0,2,0,0.17,0,4.0734,0,266990,274570,0,0,24,0,0,65723317,0.17,0,4.0734,0,1.553,87.941,0,0.27,0,552.525,568.212,1,-1,0,0,0,0,0,0,0,0,0,-1,0,0,0,0,0,0,0
65723425,25.3,25.6,0,0,0,-78.3,0.07,0,0,0,2,0,0.17,0,4.0734,0,266990,274570,0,0,24,0,0,65723362,0.17,0,4.0734,0,1.543,87.364,0,-0.11,0,552.525,568.212,1,-1,0,0,0,0,0,0,0,0,0,-1,0,0,0,0,0,0,0
65723490,24.5,25.2,0,0,0,-76.7,0.04,0,0,0,2,0,0.17,0,4.0734,0,266990,274570,0,0,24,0,0,65723425,0.17,0,4.0734,0,1.548,87.672,0,0.1,0,552.525,568.212,1,-1,0,0,0,0,0,0,0,0,0,-1,0,0,0,0,0,0,0
65723591,24.4,25.9,0,0,0,-77.6,0.06,0,0,0,2,0,0.17,0,4.0734,0,266990,274570,0,0,24,0,0,65723491,0.17,0,4.0734,0,1.575,89.172,0,-0.41,0,552.525,568.212,1,-1,0,0,0,0,0,0,0,0,0,-1,0,0,0,0,0,0,0
65723686,24.8,25.5,0,0,0,-78.4,0.06,0,0,0,2,0,0.17,0,4.0734,0,266990,274570,0,0,24,0,0,65723592,0.17,0,4.0734,0,1.565,88.633,0,0.78,0,552.525,568.212,1,-1,0,0,0,0,0,0,0,0,0,-1,0,0,0,0,0,0,0
65723774,24.4,25.8,0,0,0,-79,0.06,0,0,0,2,0,0.17,0,4.0734,0,266990,274570,0,0,24,0,0,65723687,0.17,0,4.0734,0,1.537,87.056,0,-0.73,0,552.525,568.212,1,-1,0,0,0,0,0,0,0,0,0,-1,0,0,0,0,0,0,0
65723867,25,25.7,0,0,0,-79.3,0.08,0,0,0,2,0,0.17,0,4.0734,0,266990,274570,0,0,24,0,0,65723775,0.17,0,4.0734,0,1.556,88.095,0,-0.32,0,552.525,568.212,1,-1,0,0,0,0,0,0,0,0,0,-1,0,0,0,0,0,0,0
65723974,24.3,26.1,0,0,0,-80.2,0.08,0,0,0,2,0,0.17,0,4.0734,0,266990,274570,0,0,24,0,0,65723868,0.17,0,4.0734,0,1.537,87.056,0,0.33,0,552.525,568.212,1,-1,0,0,0,0,0,0,0,0,0,-1,0,0,0,0,0,0,0
65724086,24.6,25.4,0,0,0,-82,0.03,0,0,0,2,0,0.17,0,4.0734,0,266990,274570,0,0,24,0,0,65723974,0.17,0,4.0734,0,1.54,87.21,0,-0.34,0,552.525,568.212,1,-1,0,0,0,0,0,0,0,0,0,-1,0,0,0,0,0,0,0
65724176,24.9,26.1,0,0,0,-83.2,0.01,0,0,0,2,0,0.17,0,4.0734,0,266990,274570,0,0,24,0,0,65724087,0.17,0,4.0734,0,1.577,89.287,0,-0.06,0,552.525,568.212,1,-1,0,0,0,0,0,0,0,0,0,-1,0,0,0,0,0,0,0
65724290,24.5,25.2,0,0,0,-78,0.06,0,0,0,2,0,0.17,0,4.0734,0,266990,274570,0,0,24,0,0,65724177,0.17,0,4.0734,0,1.531,86.672,0,0.44,0,552.525,568.212,1,-1,0,0,0,0,0,0,0,0,0,-1,0,0,0,0,0,0,0
65724393,24.3,26,0,0,0,-80,0.07,0,0,0,2,0,0.17,0,4.0734,0,266991,274571,0,0,24,0,0,65724290,0.17,0,4.0734,0,1.568,88.787,0,0.63,0,552.525,568.212,1,-1,0,0,0,0,0,0,0,0,0,-1,0,0,0,0,0,0,0
65724483,24.9,25.6,0,0,0,-81.9,0,0,0,0,2,0,0.17,0,4.0734,0,266991,274571,0,0,24,0,0,65724393,0.17,0,4.0734,0,1.564,88.556,0,-0.55,0,552.527,568.214,1,-1,0,0,0,0,0,0,0,0,0,-1,0,0,0,0,0,0,0
65724560,24.5,26.3,0,0,0,-83.1,0.02,0,0,0,2,0,0.17,0,4.0734,0,266991,274571,0,0,24,0,0,65724484,0.17,0,4.0734,0,1.535,86.941,0,-0.31,0,552.527,568.214,1,-1,0,0,0,0,0,0,0,0,0,-1,0,0,0,0,0,0,0
65724641,24.5,25.4,0,0,0,-80.1,-0.02,0,0,0,2,0,0.17,0,4.0734,0,266991,274571,0,0,24,0,0,65724561,0.17,0,4.0734,0,1.573,89.057,0,0.29,0,552.527,568.214,1,-1,0,0,0,0,0,0,0,0,0,-1,0,0,0,0,0,0,0
65724735,24.4,25.9,0,0,0,-79.7,0.07,0,0,0,2,0,0.17,0,4.0734,0,266991,274571,0,0,24,0,0,65724641,0.17,0,4.0734,0,1.568,88.787,0,-0.26,0,552.527,568.214,1,-1,0,0,0,0,0,0,0,0,0,-1,0,0,0,0,0,0,0
65724896,24.9,25.6,0,0,0,-82.5,0.05,0,0,0,2,0,0.17,0,4.0734,0,266991,274571,0,0,24,0,0,65724735,0.17,0,4.0734,0,1.569,88.864,0,-0.13,0,552.527,568.214,1,-1,0,0,0,0,0,0,0,0,0,-1,0,0,0,0,0,0,0
65724940,25.3,25.5,0,0,0,-81,-0.01,0,0,0,2,0,0.17,0,4.0734,0,266991,274571,0,0,24,0,0,65724896,0.17,0,4.0734,0,1.534,86.864,0,-1.13,0,552.527,568.214,1,-1,0,0,0,0,0,0,0,0,0,-1,0,0,0,0,0,0,0
65724985,24.5,25.2,0,0,0,-79.4,0.11,0,0,0,2,0,0.17,0,4.0734,0,266991,274571,0,0,24,0,0,65724947,0.17,0,4.0734,0,1.582,89.557,0,-0.6,0,552.527,568.214,1,-1,0,0,0,0,0,0,0,0,0,-1,0,0,0,0,0,0,0
65725046,24.5,25.3,0,0,0,-78.9,0.06,0,0,0,2,0,0.17,0,4.0734,0,266991,274571,0,0,24,0,0,65724985,0.17,0,4.0734,0,1.565,88.633,0,-0.31,0,552.527,568.214,1,-1,0,0,0,0,0,0,0,0,0,-1,0,0,0,0,0,0,0
65725095,24.3,25.8,0,0,0,-78.4,0.09,0,0,0,2,0,0.17,0,4.0734,0,266991,274571,0,0,24,0,0,65725046,0.17,0,4.0734,0,1.546,87.556,0,0,0,552.527,568.214,1,-1,0,0,0,0,0,0,0,0,0,-1,0,0,0,0,0,0,0
65725130,25.1,26,0,0,0,-82,-0.08,0,0,0,2,0,0.17,0,4.0734,0,266991,274571,0,0,24,0,0,65725095,0.17,0,4.0734,0,1.537,87.056,0,-0.14,0,552.527,568.214,1,-1,0,0,0,0,0,0,0,0,0,-1,0,0,0,0,0,0,0
65725206,25.2,25.4,0,0,0,-77.1,0.04,0,0,0,2,0,0.17,0,4.0734,0,266991,274571,0,0,24,0,0,65725130,0.17,0,4.0734,0,1.553,87.941,0,0.19,0,552.527,568.214,1,-1,0,0,0,0,0,0,0,0,0,-1,0,0,0,0,0,0,0
65725280,24.5,25.5,0,0,0,-82.7,0.06,0,0,0,2,0,0.17,0,4.0734,0,266991,274571,0,0,24,0,0,65725206,0.17,0,4.0734,0,1.543,87.364,0,-0.06,0,552.527,568.214,1,-1,0,0,0,0,0,0,0,0,0,-1,0,0,0,0,0,0,0
65725353,24.5,25.8,0,0,0,-80.9,0.06,0,0,0,2,0,0.17,0,4.0734,0,266991,274571,0,0,24,0,0,65725281,0.17,0,4.0734,0,1.558,88.249,0,0.55,0,552.527,568.214,1,-1,0,0,0,0,0,0,0,0,0,-1,0,0,0,0,0,0,0
65725434,24.4,25.7,0,0,0,-82.5,0.02,0,0,0,2,0,0.17,0,4.0734,0,266991,274571,0,0,24,0,0,65725354,0.17,0,4.0734,0,1.548,87.633,0,-0.76,0,552.527,568.214,1,-1,0,0,0,0,0,0,0,0,0,-1,0,0,0,0,0,0,0
