ms_today,input_voltage,temp_mos_max,temp_mos_1,temp_mos_2,temp_mos_3,temp_motor,current_motor,current_in,d_axis_current,q_axis_current,erpm,duty_cycle,amp_hours_used,amp_hours_charged,watt_hours_used,watt_hours_charged,tachometer,tachometer_abs,encoder_position,fault_code,vesc_id,d_axis_voltage,q_axis_voltage,ms_today_setup,amp_hours_setup,amp_hours_charged_setup,watt_hours_setup,watt_hours_charged_setup,battery_level,battery_wh_tot,current_in_setup,current_motor_setup,speed_meters_per_sec,tacho_meters,tacho_abs_meters,num_vescs,ms_today_imu,roll,pitch,yaw,accX,accY,accZ,gyroX,gyroY,gyroZ,gnss_posTime,gnss_lat,gnss_lon,gnss_alt,gnss_gVel,gnss_vVel,gnss_hAcc,gnss_vAcc
67856593,24.6,23.9,0,0,0,-77.3,0.46,0,0,0,0,0,0.0003,0,0.0079,0,2066,2066,0,0,24,0,0,-1,0,0,0,0,0,0,0,0,0,0,0,0,-1,0,0,0,0,0,0,0,0,0,-1,0,0,0,0,0,0,0
67856714,25.5,24.1,0,0,0,-87.4,0.45,0,0,0,0,0,0.0003,0,0.0079,0,2066,2066,0,0,24,0,0,67856712,0.0003,0,0.0079,0,1.565,88.595,0,0.26,0,4.275,4.275,1,-1,0,0,0,0,0,0,0,0,0,-1,0,0,0,0,0,0,0
67856798,25.3,24.1,0,0,0,-86.7,0.46,0,0,0,0,0,0.0003,0,0.0079,0,2066,2066,0,0,24,0,0,67856712,0.0003,0,0.0079,0,1.565,88.595,0,0.26,0,4.275,4.275,1,-1,0,0,0,0,0,0,0,0,0,-1,0,0,0,0,0,0,0
67856865,24.5,23.2,0,0,0,-75.5,0.44,0,0,0,0,0,0.0003,0,0.0079,0,2066,2066,0,0,24,0,0,67856799,0.0003,0,0.0079,0,1.55,87.749,0,-0.09,0,4.275,4.275,1,-1,0,0,0,0,0,0,0,0,0,-1,0,0,0,0,0,0,0
67856934,25.4,24.7,0,0,0,-81.2,0.46,0,0,0,0,0,0.0003,0,0.0079,0,2066,2066,0,0,24,0,0,67856865,0.0003,0,0.0079,0,1.548,87.633,0,0.75,0,4.275,4.275,1,-1,0,0,0,0,0,0,0,0,0,-1,0,0,0,0,0,0,0
67857025,24.7,24,0,0,0,-86,0.45,0,0,0,0,0,0.0003,0,0.0079,0,2066,2066,0,0,24,0,0,67856935,0.0003,0,0.0079,0,1.542,87.325,0,0.34,0,4.275,4.275,1,-1,0,0,0,0,0,0,0,0,0,-1,0,0,0,0,0,0,0
67857107,25.4,24.1,0,0,0,-87,0.45,0,0,0,0,0,0.0003,0,0.0079,0,2066,2066,0,0,24,0,0,67857025,0.0003,0,0.0079,0,1.556,88.095,0,0.66,0,4.275,4.275,1,-1,0,0,0,0,0,0,0,0,0,-1,0,0,0,0,0,0,0
67857181,25.2,23.9,0,0,0,-89.8,0.49,0,0,0,0,0,0.0003,0,0.0079,0,2066,2066,0,0,24,0,0,67857108,0.0003,0,0.0079,0,1.558,88.21,0,-0.2,0,4.275,4.275,1,-1,0,0,0,0,0,0,0,0,0,-1,0,0,0,0,0,0,0
67857275,24.7,24.1,0,0,0,-88.5,0.45,0,0,0,0,0,0.0003,0,0.0079,0,2066,2066,0,0,24,0,0,67857181,0.0003,0,0.0079,0,1.55,87.787,0,0.48,0,4.275,4.275,1,-1,0,0,0,0,0,0,0,0,0,-1,0,0,0,0,0,0,0
67857373,24.7,24,0,0,0,-81.6,0.45,0,0,0,0,0,0.0003,0,0.0079,0,2066,2066,0,0,24,0,0,67857276,0.0003,0,0.0079,0,1.579,89.441,0,-0.61,0,4.275,4.275,1,-1,0,0,0,0,0,0,0,0,0,-1,0,0,0,0,0,0,0
67857451,25.2,23.7,0,0,0,-79.2,0.45,0,0,0,0,0,0.0003,0,0.0079,0,2066,2066,0,0,24,0,0,67857373,0.0003,0,0.0079,0,1.58,89.48,0,-0.34,0,4.275,4.275,1,-1,0,0,0,0,0,0,0,0,0,-1,0,0,0,0,0,0,0
67857491,25.1,24.2,0,0,0,-80.8,0.47,0,0,0,0,0,0.0003,0,0.0079,0,2066,2066,0,0,24,0,0,67857452,0.0003,0,0.0079,0,1.552,87.864,0,-0.29,0,4.275,4.275,1,-1,0,0,0,0,0,0,0,0,0,-1,0,0,0,0,0,0,0
67857552,25.2,24.1,0,0,0,-83.4,0.46,0,0,0,0,0,0.0003,0,0.0079,0,2066,2066,0,0,24,0,0,67857491,0.0003,0,0.0079,0,1.587,89.864,0,-0.18,0,4.275,4.275,1,-1,0,0,0,0,0,0,0,0,0,-1,0,0,0,0,0,0,0
67857592,25.2,23.9,0,0,0,-83.4,0.45,0,0,0,0,0,0.0003,0,0.0079,0,2066,2066,0,0,24,0,0,67857571,0.0003,0,0.0079,0,1.542,87.325,0,0.51,0,4.275,4.275,1,-1,0,0,0,0,0,0,0,0,0,-1,0,0,0,0,0,0,0
67857634,25.5,23.8,0,0,0,-77.3,0.45,0,0,0,0,0,0.0003,0,0.0079,0,2066,2066,0,0,24,0,0,67857571,0.0003,0,0.0079,0,1.542,87.325,0,0.51,0,4.275,4.275,1,-1,0,0,0,0,0,0,0,0,0,-1,0,0,0,0,0,0,0
67857676,25.2,23.8,0,0,0,-77.1,0.44,0,0,0,0,0,0.0003,0,0.0079,0,2066,2066,0,0,24,0,0,67857643,0.0003,0,0.0079,0,1.569,88.826,0,0.92,0,4.275,4.275,1,-1,0,0,0,0,0,0,0,0,0,-1,0,0,0,0,0,0,0
67857719,24.7,24.2,0,0,0,-81.2,0.46,0,0,0,0,0,0.0003,0,0.0079,0,2066,2066,0,0,24,0,0,67857676,0.0003,0,0.0079,0,1.579,89.441,0,0.21,0,4.275,4.275,1,-1,0,0,0,0,0,0,0,0,0,-1,0,0,0,0,0,0,0
67857771,25.2,24.1,0,0,0,-82.8,0.48,0,0,0,0,0,0.0003,0,0.0079,0,2066,2066,0,0,24,0,0,67857719,0.0003,0,0.0079,0,1.557,88.172,0,0.49,0,4.275,4.275,1,-1,0,0,0,0,0,0,0,0,0,-1,0,0,0,0,0,0,0
67857801,25.5,24.2,0,0,0,-84.5,0.44,0,0,0,0,0,0.0003,0,0.0079,0,2066,2066,0,0,24,0,0,67857771,0.0003,0,0.0079,0,1.584,89.672,0,0.25,0,4.275,4.275,1,-1,0,0,0,0,0,0,0,0,0,-1,0,0,0,0,0,0,0
67857832,24.6,24,0,0,0,-84.7,0.45,0,0,0,0,0,0.0003,0,0.0079,0,2066,2066,0,0,24,0,0,67857801,0.0003,0,0.0079,0,1.535,86.902,0,0.24,0,4.275,4.275,1,-1,0,0,0,0,0,0,0,0,0,-1,0,0,0,0,0,0,0
67857870,24.6,23.5,0,0,0,-80.1,0.45,0,0,0,0,0,0.0003,0,0.0079,0,2066,2066,0,0,24,0,0,67857832,0.0003,0,0.0079,0,1.544,87.441,0,0.48,0,4.275,4.275,1,-1,0,0,0,0,0,0,0,0,0,-1,0,0,0,0,0,0,0
67857947,25.4,24.5,0,0,0,-85.7,0.48,0,0,0,0,0,0.0003,0,0.0079,0,2066,2066,0,0,24,0,0,67857870,0.0003,0,0.0079,0,1.558,88.249,0,1.05,0,4.275,4.275,1,-1,0,0,0,0,0,0,0,0,0,-1,0,0,0,0,0,0,0
67858029,25,23.5,0,0,0,-79.1,0.45,0,0,0,0,0,0.0003,0,0.0079,0,2066,2066,0,0,24,0,0,67857947,0.0003,0,0.0079,0,1.569,88.864,0,0.25,0,4.275,4.275,1,-1,0,0,0,0,0,0,0,0,0,-1,0,0,0,0,0,0,0
67858102,24.9,23.4,0,0,0,-79.4,0.46,0,0,0,0,0,0.0003,0,0.0079,0,2066,2066,0,0,24,0,0,67858029,0.0003,0,0.0079,0,1.541,87.249,0,0.16,0,4.275,4.275,1,-1,0,0,0,0,0,0,0,0,0,-1,0,0,0,0,0,0,0
67858188,25.5,23.6,0,0,0,-79.1,0.46,0,0,0,0,0,0.0003,0,0.0079,0,2066,2066,0,0,24,0,0,67858103,0.0003,0,0.0079,0,1.587,89.864,0,0.77,0,4.275,4.275,1,-1,0,0,0,0,0,0,0,0,0,-1,0,0,0,0,0,0,0
67858268,24.8,23.6,0,0,0,-83.4,0.46,0,0,0,0,0,0.0003,0,0.0079,0,2066,2066,0,0,24,0,0,67858189,0.0003,0,0.0079,0,1.545,87.518,0,0.67,0,4.275,4.275,1,-1,0,0,0,0,0,0,0,0,0,-1,0,0,0,0,0,0,0
67858343,25.3,23.8,0,0,0,-83.3,0.5,0,0,0,0,0,0.0003,0,0.0079,0,2066,2066,0,0,24,0,0,67858268,0.0003,0,0.0079,0,1.577,89.326,0,1.16,0,4.275,4.275,1,-1,0,0,0,0,0,0,0,0,0,-1,0,0,0,0,0,0,0
67858414,24.6,24.1,0,0,0,-88.3,0.45,0,0,0,0,0,0.0003,0,0.0079,0,2066,2066,0,0,24,0,0,67858343,0.0003,0,0.0079,0,1.55,87.749,0,0.28,0,4.275,4.275,1,-1,0,0,0,0,0,0,0,0,0,-1,0,0,0,0,0,0,0
67858481,24.6,23.9,0,0,0,-88.9,0.46,0,0,0,0,0,0.0003,0,0.0079,0,2066,2066,0,0,24,0,0,67858414,0.0003,0,0.0079,0,1.579,89.403,0,0.94,0,4.275,4.275,1,-1,0,0,0,0,0,0,0,0,0,-1,0,0,0,0,0,0,0
67858522,25,24.6,0,0,0,-92.3,0.45,0,0,0,0,0,0.0003,0,0.0079,0,2066,2066,0,0,24,0,0,67858481,0.0003,0,0.0079,0,1.559,88.287,0,0.24,0,4.275,4.275,1,-1,0,0,0,0,0,0,0,0,0,-1,0,0,0,0,0,0,0
67858572,25.5,24.5,0,0,0,-94.6,0.43,0,0,0,0,0,0.0003,0,0.0079,0,2066,2066,0,0,24,0,0,67858522,0.0003,0,0.0079,0,1.544,87.441,0,-0.01,0,4.275,4.275,1,-1,0,0,0,0,0,0,0,0,0,-1,0,0,0,0,0,0,0
67858621,24.8,23.7,0,0,0,-90.2,0.46,0,0,0,0,0,0.0003,0,0.0079,0,2066,2066,0,0,24,0,0,67858577,0.0003,0,0.0079,0,1.548,87.672,0,1.1,0,4.275,4.275,1,-1,0,0,0,0,0,0,0,0,0,-1,0,0,0,0,0,0,0
67858653,25.1,24.2,0,0,0,-90.9,0.5,0,0,0,0,0,0.0003,0,0.0079,0,2066,2066,0,0,24,0,0,67858622,0.0003,0,0.0079,0,1.565,88.595,0,0.88,0,4.275,4.275,1,-1,0,0,0,0,0,0,0,0,0,-1,0,0,0,0,0,0,0
67858682,25.5,23.9,0,0,0,-90.3,0.42,0,0,0,0,0,0.0003,0,0.0079,0,2066,2066,0,0,24,0,0,67858653,0.0003,0,0.0079,0,1.582,89.595,0,0.18,0,4.275,4.275,1,-1,0,0,0,0,0,0,0,0,0,-1,0,0,0,0,0,0,0
67858714,25.4,23.9,0,0,0,-88,0.46,0,0,0,0,0,0.0003,0,0.0079,0,2066,2066,0,0,24,0,0,67858682,0.0003,0,0.0079,0,1.561,88.403,0,0.86,0,4.275,4.275,1,-1,0,0,0,0,0,0,0,0,0,-1,0,0,0,0,0,0,0
67858746,25.6,23.5,0,0,0,-83.2,0.49,0,0,0,0,0,0.0003,0,0.0079,0,2066,2066,0,0,24,0,0,67858714,0.0003,0,0.0079,0,1.537,87.018,0,0.85,0,4.275,4.275,1,-1,0,0,0,0,0,0,0,0,0,-1,0,0,0,0,0,0,0
67858786,25.5,24,0,0,0,-83.4,0.42,0,0,0,0,0,0.0003,0,0.0079,0,2066,2066,0,0,24,0,0,67858746,0.0003,0,0.0079,0,1.542,87.325,0,0.05,0,4.275,4.275,1,-1,0,0,0,0,0,0,0,0,0,-1,0,0,0,0,0,0,0
67858845,25.5,24,0,0,0,-87,0.43,0,0,0,0,0,0.0003,0,0.0079,0,2066,2066,0,0,24,0,0,67858794,0.0003,0,0.0079,0,1.558,88.249,0,-0.05,0,4.275,4.275,1,-1,0,0,0,0,0,0,0,0,0,-1,0,0,0,0,0,0,0
67858871,24.6,24.1,0,0,0,-89.2,0.45,0,0,0,0,0,0.0003,0,0.0079,0,2066,2066,0,0,24,0,0,67858845,0.0003,0,0.0079,0,1.558,88.21,0,1.09,0,4.275,4.275,1,-1,0,0,0,0,0,0,0,0,0,-1,0,0,0,0,0,0,0
67858904,24.8,24.1,0,0,0,-89.2,0.46,0,0,0,0,0,0.0003,0,0.0079,0,2066,2066,0,0,24,0,0,67858871,0.0003,0,0.0079,0,1.553,87.941,0,0.47,0,4.275,4.275,1,-1,0,0,0,0,0,0,0,0,0,-1,0,0,0,0,0,0,0
67858935,25.2,24,0,0,0,-91.8,0.47,0,0,0,0,0,0.0003,0,0.0079,0,2066,2066,0,0,24,0,0,67858904,0.0003,0,0.0079,0,1.585,89.749,0,0.2,0,4.275,4.275,1,-1,0,0,0,0,0,0,0,0,0,-1,0,0,0,0,0,0,0
67858967,24.9,24.2,0,0,0,-92.2,0.48,0,0,0,0,0,0.0003,0,0.0079,0,2066,2066,0,0,24,0,0,67858935,0.0003,0,0.0079,0,1.543,87.364,0,0.28,0,4.275,4.275,1,-1,0,0,0,0,0,0,0,0,0,-1,0,0,0,0,0,0,0
67859000,25.5,24.2,0,0,0,-91.3,0.47,0,0,0,0,0,0.0003,0,0.0079,0,2066,2066,0,0,24,0,0,67858967,0.0003,0,0.0079,0,1.572,89.018,0,0.48,0,4.275,4.275,1,-1,0,0,0,0,0,0,0,0,0,-1,0,0,0,0,0,0,0
67859033,25.6,23.5,0,0,0,-90.1,0.45,0,0,0,0,0,0.0003,0,0.0079,0,2066,2066,0,0,24,0,0,67859000,0.0003,0,0.0079,0,1.538,87.095,0,0.62,0,4.275,4.275,1,-1,0,0,0,0,0,0,0,0,0,-1,0,0,0,0,0,0,0
67859081,24.6,23.9,0,0,0,-87.9,0.46,0,0,0,0,0,0.0003,0,0.0079,0,2066,2066,0,0,24,0,0,67859033,0.0003,0,0.0079,0,1.545,87.518,0,0.18,0,4.275,4.275,1,-1,0,0,0,0,0,0,0,0,0,-1,0,0,0,0,0,0,0
67859128,25.4,23.6,0,0,0,-84.4,0.46,0,0,0,0,0,0.0003,0,0.0079,0,2066,2066,0,0,24,0,0,67859081,0.0003,0,0.0079,0,1.559,88.287,0,0.71,0,4.275,4.275,1,-1,0,0,0,0,0,0,0,0,0,-1,0,0,0,0,0,0,0
67859173,25.1,23.6,0,0,0,-83.1,0.45,0,0,0,0,0,0.0003,0,0.0079,0,2066,2066,0,0,24,0,0,67859128,0.0003,0,0.0079,0,1.538,87.095,0,0.1,0,4.275,4.275,1,-1,0,0,0,0,0,0,0,0,0,-1,0,0,0,0,0,0,0
67859223,24.6,24.3,0,0,0,-85,0.56,0,0,0,0,0,0.0003,0,0.0079,0,2066,2066,0,0,24,0,0,67859173,0.0003,0,0.0079,0,1.582,89.557,0,-0.07,0,4.275,4.275,1,-1,0,0,0,0,0,0,0,0,0,-1,0,0,0,0,0,0,0
67859252,25.4,23.7,0,0,0,-84.9,0.43,0,0,0,0,0,0.0003,0,0.0079,0,2066,2066,0,0,24,0,0,67859223,0.0003,0,0.0079,0,1.553,87.941,0,0.67,0,4.275,4.275,1,-1,0,0,0,0,0,0,0,0,0,-1,0,0,0,0,0,0,0
67859286,24.6,24.3,0,0,0,-87.5,0.52,0,0,0,0,0,0.0003,0,0.0079,0,2066,2066,0,0,24,0,0,67859252,0.0003,0,0.0079,0,1.539,87.172,0,0.26,0,4.275,4.275,1,-1,0,0,0,0,0,0,0,0,0,-1,0,0,0,0,0,0,0
67859319,24.7,24.2,0,0,0,-87.9,0.44,0,0,0,0,0,0.0003,0,0.0079,0,2066,2066,0,0,24,0,0,67859287,0.0003,0,0.0079,0,1.543,87.402,0,0.5,0,4.275,4.275,1,-1,0,0,0,0,0,0,0,0,0,-1,0,0,0,0,0,0,0
67859349,24.7,24.1,0,0,0,-87.7,0.46,0,0,0,0,0,0.0003,0,0.0079,0,2066,2066,0,0,24,0,0,67859319,0.0003,0,0.0079,0,1.558,88.249,0,0.97,0,4.275,4.275,1,-1,0,0,0,0,0,0,0,0,0,-1,0,0,0,0,0,0,0
67859389,25.4,24.3,0,0,0,-88.1,0.44,0,0,0,0,0,0.0003,0,0.0079,0,2066,2066,0,0,24,0,0,67859349,0.0003,0,0.0079,0,1.556,88.095,0,0.35,0,4.275,4.275,1,-1,0,0,0,0,0,0,0,0,0,-1,0,0,0,0,0,0,0
67859439,25.4,24.2,0,0,0,-88.5,0.5,0,0,0,0,0,0.0003,0,0.0079,0,2066,2066,0,0,24,0,0,67859389,0.0003,0,0.0079,0,1.541,87.287,0,0.61,0,4.275,4.275,1,-1,0,0,0,0,0,0,0,0,0,-1,0,0,0,0,0,0,0
67859491,25.3,24,0,0,0,-87.3,0.45,0,0,0,0,0,0.0003,0,0.0079,0,2066,2066,0,0,24,0,0,67859439,0.0003,0,0.0079,0,1.554,87.979,0,0.98,0,4.275,4.275,1,-1,0,0,0,0,0,0,0,0,0,-1,0,0,0,0,0,0,0
67859536,24.8,23.7,0,0,0,-86.3,0.47,0,0,0,0,0,0.0003,0,0.0079,0,2066,2066,0,0,24,0,0,67859491,0.0003,0,0.0079,0,1.579,89.403,0,0.48,0,4.275,4.275,1,-1,0,0,0,0,0,0,0,0,0,-1,0,0,0,0,0,0,0
67859597,25,23.8,0,0,0,-85.7,0.45,0,0,0,0,0,0.0003,0,0.0079,0,2066,2066,0,0,24,0,0,67859536,0.0003,0,0.0079,0,1.551,87.826,0,0.72,0,4.275,4.275,1,-1,0,0,0,0,0,0,0,0,0,-1,0,0,0,0,0,0,0
67859640,25.4,23.8,0,0,0,-84,0.47,0,0,0,0,0,0.0003,0,0.0079,0,2066,2066,0,0,24,0,0,67859597,0.0003,0,0.0079,0,1.576,89.249,0,0.03,0,4.275,4.275,1,-1,0,0,0,0,0,0,0,0,0,-1,0,0,0,0,0,0,0
67859693,25.5,24.2,0,0,0,-86.2,0.48,0,0,0,0,0,0.0003,0,0.0079,0,2066,2066,0,0,24,0,0,67859640,0.0003,0,0.0079,0,1.585,89.749,0,-0.3,0,4.275,4.275,1,-1,0,0,0,0,0,0,0,0,0,-1,0,0,0,0,0,0,0
67859724,24.8,23.8,0,0,0,-83.9,0.48,0,0,0,0,0,0.0003,0,0.0079,0,2066,2066,0,0,24,0,0,67859693,0.0003,0,0.0079,0,1.56,88.364,0,1.12,0,4.275,4.275,1,-1,0,0,0,0,0,0,0,0,0,-1,0,0,0,0,0,0,0
67859786,25.3,24.2,0,0,0,-84.2,0.47,0,0,0,0,0,0.0003,0,0.0079,0,2066,2066,0,0,24,0,0,67859725,0.0003,0,0.0079,0,1.566,88.672,0,0.67,0,4.275,4.275,1,-1,0,0,0,0,0,0,0,0,0,-1,0,0,0,0,0,0,0
67859818,24.7,24.1,0,0,0,-85,0.44,0,0,0,0,0,0.0003,0,0.0079,0,2066,2066,0,0,24,0,0,67859786,0.0003,0,0.0079,0,1.537,87.018,0,0.22,0,4.275,4.275,1,-1,0,0,0,0,0,0,0,0,0,-1,0,0,0,0,0,0,0
67859852,24.6,24.1,0,0,0,-84.8,0.45,0,0,0,0,0,0.0003,0,0.0079,0,2066,2066,0,0,24,0,0,67859818,0.0003,0,0.0079,0,1.55,87.787,0,0.01,0,4.275,4.275,1,-1,0,0,0,0,0,0,0,0,0,-1,0,0,0,0,0,0,0
67859884,25,23.5,0,0,0,-81.7,0.44,0,0,0,0,0,0.0003,0,0.0079,0,2066,2066,0,0,24,0,0,67859852,0.0003,0,0.0079,0,1.546,87.556,0,0.78,0,4.275,4.275,1,-1,0,0,0,0,0,0,0,0,0,-1,0,0,0,0,0,0,0
67859918,25.2,23.9,0,0,0,-82.3,0.43,0,0,0,0,0,0.0003,0,0.0079,0,2066,2066,0,0,24,0,0,67859884,0.0003,0,0.0079,0,1.576,89.249,0,0.92,0,4.275,4.275,1,-1,0,0,0,0,0,0,0,0,0,-1,0,0,0,0,0,0,0
67859950,25.5,23.7,0,0,0,-79.5,0.45,0,0,0,0,0,0.0003,0,0.0079,0,2066,2066,0,0,24,0,0,67859918,0.0003,0,0.0079,0,1.568,88.787,0,1.01,0,4.275,4.275,1,-1,0,0,0,0,0,0,0,0,0,-1,0,0,0,0,0,0,0
67859982,24.6,24.4,0,0,0,-83.9,0.45,0,0,0,0,0,0.0003,0,0.0079,0,2066,2066,0,0,24,0,0,67859950,0.0003,0,0.0079,0,1.545,87.518,0,0.92,0,4.275,4.275,1,-1,0,0,0,0,0,0,0,0,0,-1,0,0,0,0,0,0,0
67860022,25.4,24.3,0,0,0,-86.3,0.46,0,0,0,0,0,0.0003,0,0.0079,0,2066,2066,0,0,24,0,0,67859982,0.0003,0,0.0079,0,1.568,88.787,0,0.54,0,4.275,4.275,1,-1,0,0,0,0,0,0,0,0,0,-1,0,0,0,0,0,0,0
67860067,24.9,24.2,0,0,0,-86.6,0.45,0,0,0,0,0,0.0003,0,0.0079,0,2066,2066,0,0,24,0,0,67860022,0.0003,0,0.0079,0,1.586,89.826,0,0.73,0,4.275,4.275,1,-1,0,0,0,0,0,0,0,0,0,-1,0,0,0,0,0,0,0
67860117,24.7,23.9,0,0,0,-79.9,0.46,0,0,0,0,0,0.0003,0,0.0079,0,2066,2066,0,0,24,0,0,67860067,0.0003,0,0.0079,0,1.573,89.095,0,0.39,0,4.275,4.275,1,-1,0,0,0,0,0,0,0,0,0,-1,0,0,0,0,0,0,0
67860176,24.5,23.9,0,0,0,-79.7,0.46,0,0,0,0,0,0.0003,0,0.0079,0,2066,2066,0,0,24,0,0,67860117,0.0003,0,0.0079,0,1.581,89.518,0,0.31,0,4.275,4.275,1,-1,0,0,0,0,0,0,0,0,0,-1,0,0,0,0,0,0,0
67860237,25.3,23.9,0,0,0,-79.3,0.45,0,0,0,0,0,0.0003,0,0.0079,0,2066,2066,0,0,24,0,0,67860177,0.0003,0,0.0079,0,1.575,89.21,0,0.45,0,4.275,4.275,1,-1,0,0,0,0,0,0,0,0,0,-1,0,0,0,0,0,0,0
67860300,25.5,24.1,0,0,0,-83.8,0.48,0,0,0,0,0,0.0003,0,0.0079,0,2066,2066,0,0,24,0,0,67860237,0.0003,0,0.0079,0,1.563,88.518,0,0.3,0,4.275,4.275,1,-1,0,0,0,0,0,0,0,0,0,-1,0,0,0,0,0,0,0
67860362,25.4,24,0,0,0,-78,0.45,0,0,0,0,0,0.0003,0,0.0079,0,2066,2066,0,0,24,0,0,67860300,0.0003,0,0.0079,0,1.533,86.825,0,-0.01,0,4.275,4.275,1,-1,0,0,0,0,0,0,0,0,0,-1,0,0,0,0,0,0,0
67860425,24.8,24,0,0,0,-82.7,0.47,0,0,0,0,0,0.0003,0,0.0079,0,2066,2066,0,0,24,0,0,67860362,0.0003,0,0.0079,0,1.554,88.018,0,0.09,0,4.275,4.275,1,-1,0,0,0,0,0,0,0,0,0,-1,0,0,0,0,0,0,0
67860487,24.6,23.8,0,0,0,-82.6,0.46,0,0,0,0,0,0.0003,0,0.0079,0,2066,2066,0,0,24,0,0,67860426,0.0003,0,0.0079,0,1.562,88.441,0,0.73,0,4.275,4.275,1,-1,0,0,0,0,0,0,0,0,0,-1,0,0,0,0,0,0,0
67860549,24.8,24.4,0,0,0,-86.2,0.47,0,0,0,0,0,0.0003,0,0.0079,0,2066,2066,0,0,24,0,0,67860487,0.0003,0,0.0079,0,1.569,88.826,0,0.42,0,4.275,4.275,1,-1,0,0,0,0,0,0,0,0,0,-1,0,0,0,0,0,0,0
67860615,25.4,23.4,0,0,0,-78.5,0.47,0,0,0,0,0,0.0003,0,0.0079,0,2066,2066,0,0,24,0,0,67860549,0.0003,0,0.0079,0,1.588,89.903,0,0.23,0,4.275,4.275,1,-1,0,0,0,0,0,0,0,0,0,-1,0,0,0,0,0,0,0
67860675,25.5,23.3,0,0,0,-76.8,0.48,0,0,0,0,0,0.0003,0,0.0079,0,2066,2066,0,0,24,0,0,67860615,0.0003,0,0.0079,0,1.556,88.095,0,0.55,0,4.275,4.275,1,-1,0,0,0,0,0,0,0,0,0,-1,0,0,0,0,0,0,0
67860748,24.8,24,0,0,0,-83.3,0.48,0,0,0,0,0,0.0003,0,0.0079,0,2066,2066,0,0,24,0,0,67860676,0.0003,0,0.0079,0,1.563,88.518,0,0.57,0,4.275,4.275,1,-1,0,0,0,0,0,0,0,0,0,-1,0,0,0,0,0,0,0
67860798,24.8,23.6,0,0,0,-78.9,0.45,0,0,0,0,0,0.0003,0,0.0079,0,2066,2066,0,0,24,0,0,67860748,0.0003,0,0.0079,0,1.565,88.633,0,0.66,0,4.275,4.275,1,-1,0,0,0,0,0,0,0,0,0,-1,0,0,0,0,0,0,0
67860864,25.4,23.4,0,0,0,-78.2,0.47,0,0,0,0,0,0.0003,0,0.0079,0,2066,2066,0,0,24,0,0,67860798,0.0003,0,0.0079,0,1.554,87.979,0,1.12,0,4.275,4.275,1,-1,0,0,0,0,0,0,0,0,0,-1,0,0,0,0,0,0,0
67860927,25.4,23.7,0,0,0,-74.5,0.44,0,0,0,0,0,0.0003,0,0.0079,0,2066,2066,0,0,24,0,0,67860864,0.0003,0,0.0079,0,1.551,87.826,0,0.78,0,4.275,4.275,1,-1,0,0,0,0,0,0,0,0,0,-1,0,0,0,0,0,0,0
67860999,25.4,24.2,0,0,0,-81.7,0.5,0,0,0,0,0,0.0003,0,0.0079,0,2066,2066,0,0,24,0,0,67860928,0.0003,0,0.0079,0,1.558,88.21,0,0.68,0,4.275,4.275,1,-1,0,0,0,0,0,0,0,0,0,-1,0,0,0,0,0,0,0
67861076,24.7,24.6,0,0,0,-85.2,0.47,0,0,0,0,0,0.0003,0,0.0079,0,2066,2066,0,0,24,0,0,67860999,0.0003,0,0.0079,0,1.538,87.095,0,0.99,0,4.275,4.275,1,-1,0,0,0,0,0,0,0,0,0,-1,0,0,0,0,0,0,0
67861168,24.9,24,0,0,0,-85.3,0.46,0,0,0,0,0,0.0003,0,0.0079,0,2066,2066,0,0,24,0,0,67861077,0.0003,0,0.0079,0,1.578,89.364,0,0.43,0,4.275,4.275,1,-1,0,0,0,0,0,0,0,0,0,-1,0,0,0,0,0,0,0
67861262,25.2,24.2,0,0,0,-83,0.47,0,0,0,0,0,0.0003,0,0.0079,0,2066,2066,0,0,24,0,0,67861168,0.0003,0,0.0079,0,1.561,88.403,0,0.76,0,4.275,4.275,1,-1,0,0,0,0,0,0,0,0,0,-1,0,0,0,0,0,0,0
67861355,24.9,24.1,0,0,0,-89.3,0.45,0,0,0,0,0,0.0003,0,0.0079,0,2066,2066,0,0,24,0,0,67861262,0.0003,0,0.0079,0,1.573,89.095,0,0.74,0,4.275,4.275,1,-1,0,0,0,0,0,0,0,0,0,-1,0,0,0,0,0,0,0
67861447,24.7,24,0,0,0,-87.4,0.44,0,0,0,0,0,0.0003,0,0.0079,0,2066,2066,0,0,24,0,0,67861355,0.0003,0,0.0079,0,1.554,87.979,0,1.42,0,4.275,4.275,1,-1,0,0,0,0,0,0,0,0,0,-1,0,0,0,0,0,0,0
67861540,25.3,24.3,0,0,0,-88.1,0.46,0,0,0,0,0,0.0003,0,0.0079,0,2066,2066,0,0,24,0,0,67861447,0.0003,0,0.0079,0,1.577,89.287,0,0.5,0,4.275,4.275,1,-1,0,0,0,0,0,0,0,0,0,-1,0,0,0,0,0,0,0
67861633,25.3,24,0,0,0,-84.6,0.46,0,0,0,0,0,0.0003,0,0.0079,0,2066,2066,0,0,24,0,0,67861540,0.0003,0,0.0079,0,1.554,87.979,0,0.68,0,4.275,4.275,1,-1,0,0,0,0,0,0,0,0,0,-1,0,0,0,0,0,0,0
67861727,25.1,23.9,0,0,0,-84.3,0.47,0,0,0,0,0,0.0003,0,0.0079,0,2066,2066,0,0,24,0,0,67861634,0.0003,0,0.0079,0,1.586,89.787,0,0.86,0,4.275,4.275,1,-1,0,0,0,0,0,0,0,0,0,-1,0,0,0,0,0,0,0
67861811,24.9,24,0,0,0,-85.5,0.45,0,0,0,0,0,0.0003,0,0.0079,0,2066,2066,0,0,24,0,0,67861727,0.0003,0,0.0079,0,1.578,89.364,0,0.47,0,4.275,4.275,1,-1,0,0,0,0,0,0,0,0,0,-1,0,0,0,0,0,0,0
67861879,25.2,24,0,0,0,-86.1,0.45,0,0,0,0,0,0.0003,0,0.0079,0,2066,2066,0,0,24,0,0,67861812,0.0003,0,0.0079,0,1.563,88.518,0,0.95,0,4.275,4.275,1,-1,0,0,0,0,0,0,0,0,0,-1,0,0,0,0,0,0,0
67861953,24.6,24,0,0,0,-86,0.46,0,0,0,0,0,0.0003,0,0.0079,0,2066,2066,0,0,24,0,0,67861880,0.0003,0,0.0079,0,1.552,87.903,0,1.04,0,4.275,4.275,1,-1,0,0,0,0,0,0,0,0,0,-1,0,0,0,0,0,0,0
67862040,24.6,23.9,0,0,0,-80.6,0.44,0,0,0,0,0,0.0003,0,0.0079,0,2066,2066,0,0,24,0,0,67861953,0.0003,0,0.0079,0,1.557,88.172,0,0.45,0,4.275,4.275,1,-1,0,0,0,0,0,0,0,0,0,-1,0,0,0,0,0,0,0
67862115,25,24.2,0,0,0,-84.4,0.47,0,0,0,0,0,0.0003,0,0.0079,0,2066,2066,0,0,24,0,0,67862040,0.0003,0,0.0079,0,1.575,89.172,0,0.37,0,4.275,4.275,1,-1,0,0,0,0,0,0,0,0,0,-1,0,0,0,0,0,0,0
67862195,24.5,23.8,0,0,0,-84.1,0.45,0,0,0,0,0,0.0003,0,0.0079,0,2066,2066,0,0,24,0,0,67862115,0.0003,0,0.0079,0,1.575,89.172,0,0.69,0,4.275,4.275,1,-1,0,0,0,0,0,0,0,0,0,-1,0,0,0,0,0,0,0
67862290,24.6,23.5,0,0,0,-82.2,0.47,0,0,0,0,0,0.0003,0,0.0079,0,2066,2066,0,0,24,0,0,67862196,0.0003,0,0.0079,0,1.578,89.364,0,1.23,0,4.275,4.275,1,-1,0,0,0,0,0,0,0,0,0,-1,0,0,0,0,0,0,0
67862384,25.4,23.7,0,0,0,-78.1,0.48,0,0,0,0,0,0.0003,0,0.0079,0,2066,2066,0,0,24,0,0,67862291,0.0003,0,0.0079,0,1.584,89.672,0,-0.28,0,4.275,4.275,1,-1,0,0,0,0,0,0,0,0,0,-1,0,0,0,0,0,0,0
67862475,25.2,23.4,0,0,0,-83.4,0.45,0,0,0,0,0,0.0003,0,0.0079,0,2066,2066,0,0,24,0,0,67862384,0.0003,0,0.0079,0,1.541,87.287,0,0.79,0,4.275,4.275,1,-1,0,0,0,0,0,0,0,0,0,-1,0,0,0,0,0,0,0
67862550,24.7,24.2,0,0,0,-81.2,0.46,0,0,0,0,0,0.0003,0,0.0079,0,2066,2066,0,0,24,0,0,67862475,0.0003,0,0.0079,0,1.549,87.71,0,0.55,0,4.275,4.275,1,-1,0,0,0,0,0,0,0,0,0,-1,0,0,0,0,0,0,0
67862632,24.8,23.9,0,0,0,-80.1,0.42,0,0,0,0,0,0.0003,0,0.0079,0,2066,2066,0,0,24,0,0,67862550,0.0003,0,0.0079,0,1.582,89.557,0,0.23,0,4.275,4.275,1,-1,0,0,0,0,0,0,0,0,0,-1,0,0,0,0,0,0,0
67862713,25.5,24,0,0,0,-84.6,0.48,0,0,0,0,0,0.0003,0,0.0079,0,2066,2066,0,0,24,0,0,67862632,0.0003,0,0.0079,0,1.565,88.633,0,0.82,0,4.275,4.275,1,-1,0,0,0,0,0,0,0,0,0,-1,0,0,0,0,0,0,0
67862792,24.6,24.5,0,0,0,-91.2,0.43,0,0,0,0,0,0.0003,0,0.0079,0,2066,2066,0,0,24,0,0,67862716,0.0003,0,0.0079,0,1.543,87.364,0,0.79,0,4.275,4.275,1,-1,0,0,0,0,0,0,0,0,0,-1,0,0,0,0,0,0,0
67862879,25.5,24.2,0,0,0,-91.4,0.44,0,0,0,0,0,0.0003,0,0.0079,0,2066,2066,0,0,24,0,0,67862792,0.0003,0,0.0079,0,1.555,88.056,0,-0.38,0,4.275,4.275,1,-1,0,0,0,0,0,0,0,0,0,-1,0,0,0,0,0,0,0
67862953,25.1,24.2,0,0,0,-94.6,0.46,0,0,0,0,0,0.0003,0,0.0079,0,2066,2066,0,0,24,0,0,67862879,0.0003,0,0.0079,0,1.541,87.249,0,0.27,0,4.275,4.275,1,-1,0,0,0,0,0,0,0,0,0,-1,0,0,0,0,0,0,0
67863039,24.7,23.9,0,0,0,-94.8,0.43,0,0,0,0,0,0.0003,0,0.0079,0,2066,2066,0,0,24,0,0,67862954,0.0003,0,0.0079,0,1.583,89.634,0,0.21,0,4.275,4.275,1,-1,0,0,0,0,0,0,0,0,0,-1,0,0,0,0,0,0,0
67863135,24.9,23.8,0,0,0,-92.4,0.49,0,0,0,0,0,0.0003,0,0.0079,0,2066,2066,0,0,24,0,0,67863041,0.0003,0,0.0079,0,1.581,89.518,0,0.17,0,4.275,4.275,1,-1,0,0,0,0,0,0,0,0,0,-1,0,0,0,0,0,0,0
67863228,25.5,23.6,0,0,0,-84.9,0.47,0,0,0,0,0,0.0003,0,0.0079,0,2066,2066,0,0,24,0,0,67863136,0.0003,0,0.0079,0,1.565,88.633,0,-0.02,0,4.275,4.275,1,-1,0,0,0,0,0,0,0,0,0,-1,0,0,0,0,0,0,0
67863322,25.3,23.9,0,0,0,-81.4,0.45,0,0,0,0,0,0.0003,0,0.0079,0,2066,2066,0,0,24,0,0,67863229,0.0003,0,0.0079,0,1.564,88.556,0,0.31,0,4.275,4.275,1,-1,0,0,0,0,0,0,0,0,0,-1,0,0,0,0,0,0,0
67863414,25.3,23.8,0,0,0,-76.7,0.44,0,0,0,0,0,0.0003,0,0.0079,0,2066,2066,0,0,24,0,0,67863323,0.0003,0,0.0079,0,1.551,87.826,0,0.47,0,4.275,4.275,1,-1,0,0,0,0,0,0,0,0,0,-1,0,0,0,0,0,0,0
67863507,24.8,24.1,0,0,0,-78.7,0.45,0,0,0,0,0,0.0003,0,0.0079,0,2066,2066,0,0,24,0,0,67863414,0.0003,0,0.0079,0,1.553,87.941,0,0.64,0,4.275,4.275,1,-1,0,0,0,0,0,0,0,0,0,-1,0,0,0,0,0,0,0
67863601,24.7,23.2,0,0,0,-75.9,0.46,0,0,0,0,0,0.0003,0,0.0079,0,2066,2066,0,0,24,0,0,67863507,0.0003,0,0.0079,0,1.584,89.71,0,0.52,0,4.275,4.275,1,-1,0,0,0,0,0,0,0,0,0,-1,0,0,0,0,0,0,0
67863701,24.6,24.2,0,0,0,-84.8,0.49,0,0,0,0,0,0.0003,0,0.0079,0,2066,2066,0,0,24,0,0,67863601,0.0003,0,0.0079,0,1.588,89.903,0,0.98,0,4.275,4.275,1,-1,0,0,0,0,0,0,0,0,0,-1,0,0,0,0,0,0,0
67863779,24.7,23.6,0,0,0,-79.5,0.46,0,0,0,0,0,0.0003,0,0.0079,0,2066,2066,0,0,24,0,0,67863701,0.0003,0,0.0079,0,1.579,89.403,0,1.5,0,4.275,4.275,1,-1,0,0,0,0,0,0,0,0,0,-1,0,0,0,0,0,0,0
67863850,24.7,23.6,0,0,0,-78.7,0.43,0,0,0,0,0,0.0003,0,0.0079,0,2066,2066,0,0,24,0,0,67863780,0.0003,0,0.0079,0,1.55,87.749,0,-0.05,0,4.275,4.275,1,-1,0,0,0,0,0,0,0,0,0,-1,0,0,0,0,0,0,0
67863920,25.4,23.6,0,0,0,-77.1,0.45,0,0,0,0,0,0.0003,0,0.0079,0,2066,2066,0,0,24,0,0,67863850,0.0003,0,0.0079,0,1.572,89.018,0,0.09,0,4.275,4.275,1,-1,0,0,0,0,0,0,0,0,0,-1,0,0,0,0,0,0,0
67864001,24.7,23.8,0,0,0,-79,0.46,0,0,0,0,0,0.0003,0,0.0079,0,2066,2066,0,0,24,0,0,67863920,0.0003,0,0.0079,0,1.545,87.479,0,-0.19,0,4.275,4.275,1,-1,0,0,0,0,0,0,0,0,0,-1,0,0,0,0,0,0,0
67864070,24.7,24,0,0,0,-81.6,0.44,0,0,0,0,0,0.0003,0,0.0079,0,2066,2066,0,0,24,0,0,67864002,0.0003,0,0.0079,0,1.556,88.133,0,0,0,4.275,4.275,1,-1,0,0,0,0,0,0,0,0,0,-1,0,0,0,0,0,0,0
67864157,24.8,24.2,0,0,0,-83.2,0.47,0,0,0,0,0,0.0003,0,0.0079,0,2066,2066,0,0,24,0,0,67864070,0.0003,0,0.0079,0,1.575,89.21,0,0.9,0,4.275,4.275,1,-1,0,0,0,0,0,0,0,0,0,-1,0,0,0,0,0,0,0
67864224,25.1,24.1,0,0,0,-83.9,0.45,0,0,0,0,0,0.0003,0,0.0079,0,2066,2066,0,0,24,0,0,67864158,0.0003,0,0.0079,0,1.584,89.71,0,0.82,0,4.275,4.275,1,-1,0,0,0,0,0,0,0,0,0,-1,0,0,0,0,0,0,0
67864294,25.2,24.1,0,0,0,-87,0.43,0,0,0,0,0,0.0003,0,0.0079,0,2066,2066,0,0,24,0,0,67864224,0.0003,0,0.0079,0,1.548,87.633,0,1.15,0,4.275,4.275,1,-1,0,0,0,0,0,0,0,0,0,-1,0,0,0,0,0,0,0
67864376,24.9,24.4,0,0,0,-88.1,0.49,0,0,0,0,0,0.0003,0,0.0079,0,2066,2066,0,0,24,0,0,67864295,0.0003,0,0.0079,0,1.58,89.48,0,0.26,0,4.275,4.275,1,-1,0,0,0,0,0,0,0,0,0,-1,0,0,0,0,0,0,0
67864444,24.5,23.9,0,0,0,-90.8,0.45,0,0,0,0,0,0.0003,0,0.0079,0,2066,2066,0,0,24,0,0,67864377,0.0003,0,0.0079,0,1.562,88.48,0,0.04,0,4.275,4.275,1,-1,0,0,0,0,0,0,0,0,0,-1,0,0,0,0,0,0,0
67864502,25.2,24.1,0,0,0,-93.7,0.44,0,0,0,0,0,0.0003,0,0.0079,0,2066,2066,0,0,24,0,0,67864445,0.0003,0,0.0079,0,1.573,89.095,0,0.34,0,4.275,4.275,1,-1,0,0,0,0,0,0,0,0,0,-1,0,0,0,0,0,0,0
67864575,25.6,24.5,0,0,0,-94.6,0.45,0,0,0,0,0,0.0003,0,0.0079,0,2066,2066,0,0,24,0,0,67864502,0.0003,0,0.0079,0,1.575,89.21,0,0.32,0,4.275,4.275,1,-1,0,0,0,0,0,0,0,0,0,-1,0,0,0,0,0,0,0
67864662,24.7,24.3,0,0,0,-90.3,0.48,0,0,0,0,0,0.0003,0,0.0079,0,2066,2066,0,0,24,0,0,67864575,0.0003,0,0.0079,0,1.541,87.249,0,0.56,0,4.275,4.275,1,-1,0,0,0,0,0,0,0,0,0,-1,0,0,0,0,0,0,0
67864742,25.2,24,0,0,0,-90.2,0.47,0,0,0,0,0,0.0003,0,0.0079,0,2066,2066,0,0,24,0,0,67864662,0.0003,0,0.0079,0,1.56,88.364,0,0.7,0,4.275,4.275,1,-1,0,0,0,0,0,0,0,0,0,-1,0,0,0,0,0,0,0
67864813,25.1,24.2,0,0,0,-90.3,0.47,0,0,0,0,0,0.0003,0,0.0079,0,2066,2066,0,0,24,0,0,67864742,0.0003,0,0.0079,0,1.585,89.749,0,1.08,0,4.275,4.275,1,-1,0,0,0,0,0,0,0,0,0,-1,0,0,0,0,0,0,0
67864874,24.8,24.2,0,0,0,-91.8,0.44,0,0,0,0,0,0.0003,0,0.0079,0,2066,2066,0,0,24,0,0,67864814,0.0003,0,0.0079,0,1.545,87.479,0,1.11,0,4.275,4.275,1,-1,0,0,0,0,0,0,0,0,0,-1,0,0,0,0,0,0,0
67864962,24.9,23.7,0,0,0,-87.6,0.43,0,0,0,0,0,0.0003,0,0.0079,0,2066,2066,0,0,24,0,0,67864874,0.0003,0,0.0079,0,1.557,88.172,0,0.3,0,4.275,4.275,1,-1,0,0,0,0,0,0,0,0,0,-1,0,0,0,0,0,0,0
67865034,24.7,23.9,0,0,0,-88,0.46,0,0,0,0,0,0.0003,0,0.0079,0,2066,2066,0,0,24,0,0,67864963,0.0003,0,0.0079,0,1.555,88.056,0,0.87,0,4.275,4.275,1,-1,0,0,0,0,0,0,0,0,0,-1,0,0,0,0,0,0,0
67865104,24.7,24.3,0,0,0,-88,0.48,0,0,0,0,0,0.0003,0,0.0079,0,2066,2066,0,0,24,0,0,67865034,0.0003,0,0.0079,0,1.558,88.21,0,0.38,0,4.275,4.275,1,-1,0,0,0,0,0,0,0,0,0,-1,0,0,0,0,0,0,0
67865178,24.9,23.9,0,0,0,-86.6,0.48,0,0,0,0,0,0.0003,0,0.0079,0,2066,2066,0,0,24,0,0,67865105,0.0003,0,0.0079,0,1.561,88.403,0,-0.75,0,4.275,4.275,1,-1,0,0,0,0,0,0,0,0,0,-1,0,0,0,0,0,0,0
67865249,25.5,23.8,0,0,0,-84.5,0.47,0,0,0,0,0,0.0003,0,0.0079,0,2066,2066,0,0,24,0,0,67865178,0.0003,0,0.0079,0,1.55,87.787,0,0.88,0,4.275,4.275,1,-1,0,0,0,0,0,0,0,0,0,-1,0,0,0,0,0,0,0
67865322,24.9,24.5,0,0,0,-89.7,0.45,0,0,0,0,0,0.0003,0,0.0079,0,2066,2066,0,0,24,0,0,67865250,0.0003,0,0.0079,0,1.56,88.364,0,0.2,0,4.275,4.275,1,-1,0,0,0,0,0,0,0,0,0,-1,0,0,0,0,0,0,0
67865394,25.6,24.6,0,0,0,-92.8,0.45,0,0,0,0,0,0.0003,0,0.0079,0,2066,2066,0,0,24,0,0,67865322,0.0003,0,0.0079,0,1.552,87.903,0,0.58,0,4.275,4.275,1,-1,0,0,0,0,0,0,0,0,0,-1,0,0,0,0,0,0,0
67865475,25,24,0,0,0,-89.9,0.43,0,0,0,0,0,0.0003,0,0.0079,0,2066,2066,0,0,24,0,0,67865394,0.0003,0,0.0079,0,1.562,88.441,0,0.87,0,4.275,4.275,1,-1,0,0,0,0,0,0,0,0,0,-1,0,0,0,0,0,0,0
67865570,25.5,23.7,0,0,0,-87,0.46,0,0,0,0,0,0.0003,0,0.0079,0,2066,2066,0,0,24,0,0,67865476,0.0003,0,0.0079,0,1.567,88.71,0,0.99,0,4.275,4.275,1,-1,0,0,0,0,0,0,0,0,0,-1,0,0,0,0,0,0,0
67865665,25.1,24.2,0,0,0,-85.9,0.5,0,0,0,0,0,0.0003,0,0.0079,0,2066,2066,0,0,24,0,0,67865571,0.0003,0,0.0079,0,1.538,87.095,0,0.63,0,4.275,4.275,1,-1,0,0,0,0,0,0,0,0,0,-1,0,0,0,0,0,0,0
67865763,25.3,23.8,0,0,0,-86.5,0.47,0,0,0,0,0,0.0003,0,0.0079,0,2066,2066,0,0,24,0,0,67865665,0.0003,0,0.0079,0,1.551,87.826,0,0.73,0,4.275,4.275,1,-1,0,0,0,0,0,0,0,0,0,-1,0,0,0,0,0,0,0
67865852,24.7,24,0,0,0,-86.7,0.46,0,0,0,0,0,0.0003,0,0.0079,0,2066,2066,0,0,24,0,0,67865763,0.0003,0,0.0079,0,1.543,87.364,0,0.5,0,4.275,4.275,1,-1,0,0,0,0,0,0,0,0,0,-1,0,0,0,0,0,0,0
67865942,24.9,24.2,0,0,0,-85.6,0.47,0,0,0,0,0,0.0003,0,0.0079,0,2066,2066,0,0,24,0,0,67865852,0.0003,0,0.0079,0,1.573,89.095,0,0,0,4.275,4.275,1,-1,0,0,0,0,0,0,0,0,0,-1,0,0,0,0,0,0,0
67866015,25,23.9,0,0,0,-85.4,0.48,0,0,0,0,0,0.0003,0,0.0079,0,2066,2066,0,0,24,0,0,67865943,0.0003,0,0.0079,0,1.567,88.749,0,0.58,0,4.275,4.275,1,-1,0,0,0,0,0,0,0,0,0,-1,0,0,0,0,0,0,0
67866100,25.1,23.7,0,0,0,-84.1,0.45,0,0,0,0,0,0.0003,0,0.0079,0,2066,2066,0,0,24,0,0,67866016,0.0003,0,0.0079,0,1.578,89.364,0,-0.17,0,4.275,4.275,1,-1,0,0,0,0,0,0,0,0,0,-1,0,0,0,0,0,0,0
67866175,24.8,24.8,0,0,0,-83.6,0.46,0,0,0,0,0,0.0003,0,0.0079,0,2066,2066,0,0,24,0,0,67866101,0.0003,0,0.0079,0,1.554,88.018,0,-0.11,0,4.275,4.275,1,-1,0,0,0,0,0,0,0,0,0,-1,0,0,0,0,0,0,0
67866259,25,23.6,0,0,0,-81.5,0.46,0,0,0,0,0,0.0003,0,0.0079,0,2066,2066,0,0,24,0,0,67866175,0.0003,0,0.0079,0,1.575,89.172,0,1.09,0,4.275,4.275,1,-1,0,0,0,0,0,0,0,0,0,-1,0,0,0,0,0,0,0
67866329,25.2,24.2,0,0,0,-87.7,0.47,0,0,0,0,0,0.0003,0,0.0079,0,2066,2066,0,0,24,0,0,67866259,0.0003,0,0.0079,0,1.581,89.518,0,-0.15,0,4.275,4.275,1,-1,0,0,0,0,0,0,0,0,0,-1,0,0,0,0,0,0,0
67866412,24.7,23.7,0,0,0,-85.2,0.44,0,0,0,0,0,0.0003,0,0.0079,0,2066,2066,0,0,24,0,0,67866329,0.0003,0,0.0079,0,1.548,87.633,0,1.29,0,4.275,4.275,1,-1,0,0,0,0,0,0,0,0,0,-1,0,0,0,0,0,0,0
67866486,24.8,23.5,0,0,0,-89,0.45,0,0,0,0,0,0.0003,0,0.0079,0,2066,2066,0,0,24,0,0,67866413,0.0003,0,0.0079,0,1.576,89.249,0,1.26,0,4.275,4.275,1,-1,0,0,0,0,0,0,0,0,0,-1,0,0,0,0,0,0,0
67866566,25,23.7,0,0,0,-88.5,0.47,0,0,0,0,0,0.0003,0,0.0079,0,2066,2066,0,0,24,0,0,67866487,0.0003,0,0.0079,0,1.585,89.749,0,-0.26,0,4.275,4.275,1,-1,0,0,0,0,0,0,0,0,0,-1,0,0,0,0,0,0,0
67866634,24.6,23.6,0,0,0,-89.2,0.43,0,0,0,0,0,0.0003,0,0.0079,0,2066,2066,0,0,24,0,0,67866566,0.0003,0,0.0079,0,1.563,88.518,0,0.82,0,4.275,4.275,1,-1,0,0,0,0,0,0,0,0,0,-1,0,0,0,0,0,0,0
67866731,24.6,23.6,0,0,0,-86.4,0.46,0,0,0,0,0,0.0003,0,0.0079,0,2066,2066,0,0,24,0,0,67866636,0.0003,0,0.0079,0,1.551,87.826,0,0.27,0,4.275,4.275,1,-1,0,0,0,0,0,0,0,0,0,-1,0,0,0,0,0,0,0
67866793,24.7,23.6,0,0,0,-89,0.47,0,0,0,0,0,0.0003,0,0.0079,0,2066,2066,0,0,24,0,0,67866731,0.0003,0,0.0079,0,1.55,87.749,0,0.71,0,4.275,4.275,1,-1,0,0,0,0,0,0,0,0,0,-1,0,0,0,0,0,0,0
67866862,25.4,23.7,0,0,0,-86.1,0.44,0,0,0,0,0,0.0003,0,0.0079,0,2066,2066,0,0,24,0,0,67866794,0.0003,0,0.0079,0,1.578,89.364,0,0.41,0,4.275,4.275,1,-1,0,0,0,0,0,0,0,0,0,-1,0,0,0,0,0,0,0
67866927,25.4,23.9,0,0,0,-86.1,0.46,0,0,0,0,0,0.0003,0,0.0079,0,2066,2066,0,0,24,0,0,67866862,0.0003,0,0.0079,0,1.558,88.21,0,0.9,0,4.275,4.275,1,-1,0,0,0,0,0,0,0,0,0,-1,0,0,0,0,0,0,0
67866991,24.7,24,0,0,0,-88.1,0.46,0,0,0,0,0,0.0003,0,0.0079,0,2066,2066,0,0,24,0,0,67866927,0.0003,0,0.0079,0,1.554,87.979,0,1.1,0,4.275,4.275,1,-1,0,0,0,0,0,0,0,0,0,-1,0,0,0,0,0,0,0
67867061,25.3,23.9,0,0,0,-85.5,0.46,0,0,0,0,0,0.0003,0,0.0079,0,2066,2066,0,0,24,0,0,67866991,0.0003,0,0.0079,0,1.567,88.71,0,0.53,0,4.275,4.275,1,-1,0,0,0,0,0,0,0,0,0,-1,0,0,0,0,0,0,0
67867136,25.5,23.5,0,0,0,-84.8,0.45,0,0,0,0,0,0.0003,0,0.0079,0,2066,2066,0,0,24,0,0,67867062,0.0003,0,0.0079,0,1.582,89.557,0,1.13,0,4.275,4.275,1,-1,0,0,0,0,0,0,0,0,0,-1,0,0,0,0,0,0,0
67867227,25.3,24.2,0,0,0,-86.4,0.49,0,0,0,0,0,0.0003,0,0.0079,0,2066,2066,0,0,24,0,0,67867136,0.0003,0,0.0079,0,1.569,88.864,0,0.06,0,4.275,4.275,1,-1,0,0,0,0,0,0,0,0,0,-1,0,0,0,0,0,0,0
67867297,25.4,24.2,0,0,0,-92.3,0.47,0,0,0,0,0,0.0003,0,0.0079,0,2066,2066,0,0,24,0,0,67867227,0.0003,0,0.0079,0,1.545,87.518,0,0.56,0,4.275,4.275,1,-1,0,0,0,0,0,0,0,0,0,-1,0,0,0,0,0,0,0
67867383,25.3,24.2,0,0,0,-93.2,0.43,0,0,0,0,0,0.0003,0,0.0079,0,2066,2066,0,0,24,0,0,67867297,0.0003,0,0.0079,0,1.535,86.941,0,0.23,0,4.275,4.275,1,-1,0,0,0,0,0,0,0,0,0,-1,0,0,0,0,0,0,0
67867454,24.5,23.8,0,0,0,-89,0.46,0,0,0,0,0,0.0003,0,0.0079,0,2066,2066,0,0,24,0,0,67867384,0.0003,0,0.0079,0,1.552,87.864,0,0.78,0,4.275,4.275,1,-1,0,0,0,0,0,0,0,0,0,-1,0,0,0,0,0,0,0
67867537,25,23.8,0,0,0,-88.5,0.47,0,0,0,0,0,0.0003,0,0.0079,0,2066,2066,0,0,24,0,0,67867454,0.0003,0,0.0079,0,1.573,89.057,0,0.22,0,4.275,4.275,1,-1,0,0,0,0,0,0,0,0,0,-1,0,0,0,0,0,0,0
67867615,24.9,24,0,0,0,-86.9,0.46,0,0,0,0,0,0.0003,0,0.0079,0,2066,2066,0,0,24,0,0,67867537,0.0003,0,0.0079,0,1.582,89.557,0,0.06,0,4.275,4.275,1,-1,0,0,0,0,0,0,0,0,0,-1,0,0,0,0,0,0,0
67867704,24.6,24,0,0,0,-86.7,0.47,0,0,0,0,0,0.0003,0,0.0079,0,2066,2066,0,0,24,0,0,67867615,0.0003,0,0.0079,0,1.588,89.941,0,-0.05,0,4.275,4.275,1,-1,0,0,0,0,0,0,0,0,0,-1,0,0,0,0,0,0,0
67867787,25.2,24.2,0,0,0,-89.7,0.45,0,0,0,0,0,0.0003,0,0.0079,0,2066,2066,0,0,24,0,0,67867704,0.0003,0,0.0079,0,1.578,89.364,0,0.68,0,4.275,4.275,1,-1,0,0,0,0,0,0,0,0,0,-1,0,0,0,0,0,0,0
67867869,25.5,24,0,0,0,-89.3,0.45,0,0,0,0,0,0.0003,0,0.0079,0,2066,2066,0,0,24,0,0,67867787,0.0003,0,0.0079,0,1.544,87.441,0,0.47,0,4.275,4.275,1,-1,0,0,0,0,0,0,0,0,0,-1,0,0,0,0,0,0,0
67867945,25.2,23.3,0,0,0,-85.3,0.49,0,0,0,0,0,0.0003,0,0.0079,0,2066,2066,0,0,24,0,0,67867871,0.0003,0,0.0079,0,1.566,88.672,0,1.26,0,4.275,4.275,1,-1,0,0,0,0,0,0,0,0,0,-1,0,0,0,0,0,0,0
67868017,24.6,24.6,0,0,0,-83.3,0.47,0,0,0,0,0,0.0003,0,0.0079,0,2066,2066,0,0,24,0,0,67867946,0.0003,0,0.0079,0,1.552,87.864,0,1.24,0,4.275,4.275,1,-1,0,0,0,0,0,0,0,0,0,-1,0,0,0,0,0,0,0
67868101,25.3,23.5,0,0,0,-81.6,0.48,0,0,0,0,0,0.0003,0,0.0079,0,2066,2066,0,0,24,0,0,67868018,0.0003,0,0.0079,0,1.583,89.634,0,-0.11,0,4.275,4.275,1,-1,0,0,0,0,0,0,0,0,0,-1,0,0,0,0,0,0,0
67868194,25.3,24,0,0,0,-83.4,0.47,0,0,0,0,0,0.0003,0,0.0079,0,2066,2066,0,0,24,0,0,67868101,0.0003,0,0.0079,0,1.555,88.056,0,0.76,0,4.275,4.275,1,-1,0,0,0,0,0,0,0,0,0,-1,0,0,0,0,0,0,0
67868297,25.3,24.1,0,0,0,-82.2,0.46,0,0,0,0,0,0.0003,0,0.0079,0,2066,2066,0,0,24,0,0,67868195,0.0003,0,0.0079,0,1.56,88.364,0,0.49,0,4.275,4.275,1,-1,0,0,0,0,0,0,0,0,0,-1,0,0,0,0,0,0,0
67868391,25.4,24.3,0,0,0,-85.9,0.47,0,0,0,0,0,0.0003,0,0.0079,0,2066,2066,0,0,24,0,0,67868297,0.0003,0,0.0079,0,1.556,88.095,0,0.09,0,4.275,4.275,1,-1,0,0,0,0,0,0,0,0,0,-1,0,0,0,0,0,0,0
67868450,24.9,23.8,0,0,0,-85.5,0.48,0,0,0,0,0,0.0003,0,0.0079,0,2066,2066,0,0,24,0,0,67868391,0.0003,0,0.0079,0,1.55,87.749,0,1.03,0,4.275,4.275,1,-1,0,0,0,0,0,0,0,0,0,-1,0,0,0,0,0,0,0
67868517,25.3,23.8,0,0,0,-86.6,0.51,0,0,0,0,0,0.0003,0,0.0079,0,2066,2066,0,0,24,0,0,67868451,0.0003,0,0.0079,0,1.575,89.172,0,0.57,0,4.275,4.275,1,-1,0,0,0,0,0,0,0,0,0,-1,0,0,0,0,0,0,0
67868602,24.9,24.2,0,0,0,-85.7,0.48,0,0,0,0,0,0.0003,0,0.0079,0,2066,2066,0,0,24,0,0,67868517,0.0003,0,0.0079,0,1.539,87.172,0,0.04,0,4.275,4.275,1,-1,0,0,0,0,0,0,0,0,0,-1,0,0,0,0,0,0,0
67868703,25.4,23.4,0,0,0,-81.7,0.44,0,0,0,0,0,0.0003,0,0.0079,0,2066,2066,0,0,24,0,0,67868602,0.0003,0,0.0079,0,1.565,88.595,0,0.77,0,4.275,4.275,1,-1,0,0,0,0,0,0,0,0,0,-1,0,0,0,0,0,0,0
67868791,24.5,24.3,0,0,0,-84.4,0.48,0,0,0,0,0,0.0003,0,0.0079,0,2066,2066,0,0,24,0,0,67868704,0.0003,0,0.0079,0,1.552,87.864,0,-0.52,0,4.275,4.275,1,-1,0,0,0,0,0,0,0,0,0,-1,0,0,0,0,0,0,0
67868876,24.8,23.6,0,0,0,-81.5,0.46,0,0,0,0,0,0.0003,0,0.0079,0,2066,2066,0,0,24,0,0,67868791,0.0003,0,0.0079,0,1.552,87.903,0,1.25,0,4.275,4.275,1,-1,0,0,0,0,0,0,0,0,0,-1,0,0,0,0,0,0,0
67868951,25.5,23.5,0,0,0,-76.7,0.46,0,0,0,0,0,0.0003,0,0.0079,0,2066,2066,0,0,24,0,0,67868877,0.0003,0,0.0079,0,1.558,88.21,0,0.69,0,4.275,4.275,1,-1,0,0,0,0,0,0,0,0,0,-1,0,0,0,0,0,0,0
67869039,25,24.6,0,0,0,-81.9,0.41,0,0,0,0,0,0.0003,0,0.0079,0,2066,2066,0,0,24,0,0,67868951,0.0003,0,0.0079,0,1.563,88.518,0,1,0,4.275,4.275,1,-1,0,0,0,0,0,0,0,0,0,-1,0,0,0,0,0,0,0
67869133,25,23.4,0,0,0,-76,0.46,0,0,0,0,0,0.0003,0,0.0079,0,2066,2066,0,0,24,0,0,67869039,0.0003,0,0.0079,0,1.55,87.749,0,0.92,0,4.275,4.275,1,-1,0,0,0,0,0,0,0,0,0,-1,0,0,0,0,0,0,0
67869227,25.3,23.7,0,0,0,-75.9,0.44,0,0,0,0,0,0.0003,0,0.0079,0,2066,2066,0,0,24,0,0,67869133,0.0003,0,0.0079,0,1.573,89.095,0,0.3,0,4.275,4.275,1,-1,0,0,0,0,0,0,0,0,0,-1,0,0,0,0,0,0,0
67869321,25.3,23.8,0,0,0,-82.6,0.47,0,0,0,0,0,0.0003,0,0.0079,0,2066,2066,0,0,24,0,0,67869227,0.0003,0,0.0079,0,1.586,89.826,0,0.84,0,4.275,4.275,1,-1,0,0,0,0,0,0,0,0,0,-1,0,0,0,0,0,0,0
67869414,24.9,23.7,0,0,0,-80.8,0.48,0,0,0,0,0,0.0003,0,0.0079,0,2066,2066,0,0,24,0,0,67869322,0.0003,0,0.0079,0,1.536,86.979,0,1.05,0,4.275,4.275,1,-1,0,0,0,0,0,0,0,0,0,-1,0,0,0,0,0,0,0
67869508,25.5,23.6,0,0,0,-85.1,0.47,0,0,0,0,0,0.0003,0,0.0079,0,2066,2066,0,0,24,0,0,67869415,0.0003,0,0.0079,0,1.586,89.787,0,0.27,0,4.275,4.275,1,-1,0,0,0,0,0,0,0,0,0,-1,0,0,0,0,0,0,0
67869598,24.8,24,0,0,0,-82.2,0.47,0,0,0,0,0,0.0003,0,0.0079,0,2066,2066,0,0,24,0,0,67869508,0.0003,0,0.0079,0,1.562,88.48,0,0.23,0,4.275,4.275,1,-1,0,0,0,0,0,0,0,0,0,-1,0,0,0,0,0,0,0
67869670,24.7,23.8,0,0,0,-79.2,0.45,0,0,0,0,0,0.0003,0,0.0079,0,2066,2066,0,0,24,0,0,67869599,0.0003,0,0.0079,0,1.569,88.864,0,0.08,0,4.275,4.275,1,-1,0,0,0,0,0,0,0,0,0,-1,0,0,0,0,0,0,0
67869762,24.9,24,0,0,0,-79.5,0.46,0,0,0,0,0,0.0003,0,0.0079,0,2066,2066,0,0,24,0,0,67869670,0.0003,0,0.0079,0,1.579,89.403,0,0.05,0,4.275,4.275,1,-1,0,0,0,0,0,0,0,0,0,-1,0,0,0,0,0,0,0
67869827,25.5,23.4,0,0,0,-78.1,0.43,0,0,0,0,0,0.0003,0,0.0079,0,2066,2066,0,0,24,0,0,67869762,0.0003,0,0.0079,0,1.562,88.48,0,0.16,0,4.275,4.275,1,-1,0,0,0,0,0,0,0,0,0,-1,0,0,0,0,0,0,0
67869895,24.9,24,0,0,0,-78.3,0.46,0,0,0,0,0,0.0003,0,0.0079,0,2066,2066,0,0,24,0,0,67869827,0.0003,0,0.0079,0,1.546,87.556,0,0.54,0,4.275,4.275,1,-1,0,0,0,0,0,0,0,0,0,-1,0,0,0,0,0,0,0
67869959,24.8,24.1,0,0,0,-78.2,0.48,0,0,0,0,0,0.0003,0,0.0079,0,2066,2066,0,0,24,0,0,67869896,0.0003,0,0.0079,0,1.587,89.864,0,0.47,0,4.275,4.275,1,-1,0,0,0,0,0,0,0,0,0,-1,0,0,0,0,0,0,0
67870023,25.5,23.6,0,0,0,-79.1,0.47,0,0,0,0,0,0.0003,0,0.0079,0,2066,2066,0,0,24,0,0,67869959,0.0003,0,0.0079,0,1.566,88.672,0,0.85,0,4.275,4.275,1,-1,0,0,0,0,0,0,0,0,0,-1,0,0,0,0,0,0,0
67870087,24.6,23.5,0,0,0,-76.8,0.45,0,0,0,0,0,0.0003,0,0.0079,0,2066,2066,0,0,24,0,0,67870023,0.0003,0,0.0079,0,1.541,87.249,0,0.7,0,4.275,4.275,1,-1,0,0,0,0,0,0,0,0,0,-1,0,0,0,0,0,0,0
67870150,24.7,23.2,0,0,0,-70.9,0.47,0,0,0,0,0,0.0003,0,0.0079,0,2066,2066,0,0,24,0,0,67870087,0.0003,0,0.0079,0,1.545,87.479,0,-0.2,0,4.275,4.275,1,-1,0,0,0,0,0,0,0,0,0,-1,0,0,0,0,0,0,0
67870211,24.9,23.5,0,0,0,-77.6,0.47,0,0,0,0,0,0.0003,0,0.0079,0,2066,2066,0,0,24,0,0,67870150,0.0003,0,0.0079,0,1.549,87.71,0,0.21,0,4.275,4.275,1,-1,0,0,0,0,0,0,0,0,0,-1,0,0,0,0,0,0,0
67870281,25.4,23.3,0,0,0,-75.1,0.43,0,0,0,0,0,0.0003,0,0.0079,0,2066,2066,0,0,24,0,0,67870211,0.0003,0,0.0079,0,1.577,89.287,0,-0.09,0,4.275,4.275,1,-1,0,0,0,0,0,0,0,0,0,-1,0,0,0,0,0,0,0
67870342,24.8,24.2,0,0,0,-78.1,0.49,0,0,0,0,0,0.0003,0,0.0079,0,2066,2066,0,0,24,0,0,67870281,0.0003,0,0.0079,0,1.542,87.325,0,1.04,0,4.275,4.275,1,-1,0,0,0,0,0,0,0,0,0,-1,0,0,0,0,0,0,0
67870401,25.3,23.7,0,0,0,-80.9,0.46,0,0,0,0,0,0.0003,0,0.0079,0,2066,2066,0,0,24,0,0,67870343,0.0003,0,0.0079,0,1.556,88.095,0,0.11,0,4.275,4.275,1,-1,0,0,0,0,0,0,0,0,0,-1,0,0,0,0,0,0,0
67870463,25.2,24.2,0,0,0,-85.6,0.48,0,0,0,0,0,0.0003,0,0.0079,0,2066,2066,0,0,24,0,0,67870402,0.0003,0,0.0079,0,1.554,88.018,0,1.37,0,4.275,4.275,1,-1,0,0,0,0,0,0,0,0,0,-1,0,0,0,0,0,0,0
67870528,24.7,23.7,0,0,0,-82.8,0.47,0,0,0,0,0,0.0003,0,0.0079,0,2066,2066,0,0,24,0,0,67870464,0.0003,0,0.0079,0,1.562,88.441,0,1.07,0,4.275,4.275,1,-1,0,0,0,0,0,0,0,0,0,-1,0,0,0,0,0,0,0
67870592,24.8,23.7,0,0,0,-78.7,0.46,0,0,0,0,0,0.0003,0,0.0079,0,2066,2066,0,0,24,0,0,67870528,0.0003,0,0.0079,0,1.562,88.441,0,-0.05,0,4.275,4.275,1,-1,0,0,0,0,0,0,0,0,0,-1,0,0,0,0,0,0,0
67870654,24.9,24.4,0,0,0,-85.5,0.49,0,0,0,0,0,0.0003,0,0.0079,0,2066,2066,0,0,24,0,0,67870593,0.0003,0,0.0079,0,1.581,89.518,0,0.87,0,4.275,4.275,1,-1,0,0,0,0,0,0,0,0,0,-1,0,0,0,0,0,0,0
67870717,24.7,23.9,0,0,0,-85.8,0.52,0,0,0,0,0,0.0003,0,0.0079,0,2066,2066,0,0,24,0,0,67870654,0.0003,0,0.0079,0,1.588,89.903,0,1.08,0,4.275,4.275,1,-1,0,0,0,0,0,0,0,0,0,-1,0,0,0,0,0,0,0
67870779,24.6,24.4,0,0,0,-83.9,0.45,0,0,0,0,0,0.0003,0,0.0079,0,2066,2066,0,0,24,0,0,67870717,0.0003,0,0.0079,0,1.565,88.595,0,-0.22,0,4.275,4.275,1,-1,0,0,0,0,0,0,0,0,0,-1,0,0,0,0,0,0,0
67870857,24.8,24,0,0,0,-82.8,0.42,0,0,0,0,0,0.0003,0,0.0079,0,2066,2066,0,0,24,0,0,67870780,0.0003,0,0.0079,0,1.555,88.056,0,-0.18,0,4.275,4.275,1,-1,0,0,0,0,0,0,0,0,0,-1,0,0,0,0,0,0,0
67870931,25.4,24.1,0,0,0,-83.5,0.47,0,0,0,0,0,0.0003,0,0.0079,0,2066,2066,0,0,24,0,0,67870858,0.0003,0,0.0079,0,1.577,89.287,0,0.25,0,4.275,4.275,1,-1,0,0,0,0,0,0,0,0,0,-1,0,0,0,0,0,0,0
67871019,25.5,23.8,0,0,0,-81.4,0.46,0,0,0,0,0,0.0003,0,0.0079,0,2066,2066,0,0,24,0,0,67870932,0.0003,0,0.0079,0,1.58,89.48,0,0.57,0,4.275,4.275,1,-1,0,0,0,0,0,0,0,0,0,-1,0,0,0,0,0,0,0
67871111,24.6,23.5,0,0,0,-80.3,0.46,0,0,0,0,0,0.0003,0,0.0079,0,2066,2066,0,0,24,0,0,67871019,0.0003,0,0.0079,0,1.539,87.133,0,0.14,0,4.275,4.275,1,-1,0,0,0,0,0,0,0,0,0,-1,0,0,0,0,0,0,0
67871204,25.3,23.7,0,0,0,-76,0.43,0,0,0,0,0,0.0003,0,0.0079,0,2066,2066,0,0,24,0,0,67871111,0.0003,0,0.0079,0,1.561,88.403,0,0.92,0,4.275,4.275,1,-1,0,0,0,0,0,0,0,0,0,-1,0,0,0,0,0,0,0
67871309,25.3,23.4,0,0,0,-80.8,0.47,0,0,0,0,0,0.0003,0,0.0079,0,2066,2066,0,0,24,0,0,67871204,0.0003,0,0.0079,0,1.546,87.556,0,1.19,0,4.275,4.275,1,-1,0,0,0,0,0,0,0,0,0,-1,0,0,0,0,0,0,0
67871405,25.2,24.2,0,0,0,-82.3,0.44,0,0,0,0,0,0.0003,0,0.0079,0,2066,2066,0,0,24,0,0,67871309,0.0003,0,0.0079,0,1.569,88.826,0,1.18,0,4.275,4.275,1,-1,0,0,0,0,0,0,0,0,0,-1,0,0,0,0,0,0,0
67871498,25.3,24,0,0,0,-81.1,0.44,0,0,0,0,0,0.0003,0,0.0079,0,2066,2066,0,0,24,0,0,67871405,0.0003,0,0.0079,0,1.562,88.48,0,0.34,0,4.275,4.275,1,-1,0,0,0,0,0,0,0,0,0,-1,0,0,0,0,0,0,0
67871580,25.6,23.9,0,0,0,-82.9,0.87,0,0,0,29,0.001,0.0003,0,0.0079,0,2068,2068,0,0,24,0,0,67871498,0.0003,0,0.0079,0,1.56,88.326,0,-0.08,0,4.275,4.275,1,-1,0,0,0,0,0,0,0,0,0,-1,0,0,0,0,0,0,0
67871668,25,24,0,0,0,-84.6,1.66,0.01,0,0,623,0.007,0.0003,0,0.0079,0,2077,2077,0,0,24,0,0,67871580,0.0003,0,0.0079,0,1.567,88.71,0,0.54,0.006,4.279,4.279,1,-1,0,0,0,0,0,0,0,0,0,-1,0,0,0,0,0,0,0
67871762,24.5,24,0,0,0,-87,4.73,0.04,0,0,852,0.008,0.0003,0,0.008,0,2085,2085,0,0,24,0,0,67871668,0.0003,0,0.0079,0,1.559,88.287,0.04,5.95,0.129,4.298,4.298,1,-1,0,0,0,0,0,0,0,0,0,-1,0,0,0,0,0,0,0
67871840,24.5,24,0,0,0,-87.7,4.71,0.05,0,0,798,0.018,0.0003,0,0.008,0,2092,2092,0,0,24,0,0,67871762,0.0003,0,0.008,0,1.539,87.172,0.03,4.39,0.176,4.314,4.314,1,-1,0,0,0,0,0,0,0,0,0,-1,0,0,0,0,0,0,0
67871929,24.7,23.8,0,0,0,-87.3,5.47,0.08,0,0,971,0.015,0.0003,0,0.008,0,2095,2095,0,0,24,0,0,67871840,0.0003,0,0.008,0,1.537,87.056,0.07,4.38,0.165,4.329,4.329,1,-1,0,0,0,0,0,0,0,0,0,-1,0,0,0,0,0,0,0
67871999,24.9,24.3,0,0,0,-85.6,6.92,0.14,0,0,476,0.029,0.0003,0,0.0081,0,2105,2105,0,0,24,0,0,67871930,0.0003,0,0.008,0,1.565,88.633,0.12,6.69,0.201,4.335,4.335,1,-1,0,0,0,0,0,0,0,0,0,-1,0,0,0,0,0,0,0
67872088,25,24.1,0,0,0,-87.9,7.48,0.24,0,0,758,0.031,0.0003,0,0.0082,0,2108,2108,0,0,24,0,0,67872000,0.0003,0,0.0081,0,1.573,89.057,0.24,8.41,0.098,4.356,4.356,1,-1,0,0,0,0,0,0,0,0,0,-1,0,0,0,0,0,0,0
67872180,24.5,23.7,0,0,0,-84.5,10.07,0.51,0,0,2722,0.062,0.0003,0,0.0085,0,2132,2132,0,0,24,0,0,67872088,0.0003,0,0.0082,0,1.535,86.902,0.24,7.92,0.157,4.362,4.362,1,-1,0,0,0,0,0,0,0,0,0,-1,0,0,0,0,0,0,0
67872283,24.6,23.4,0,0,0,-84,10.62,0.86,0,0,5234,0.096,0.0003,0,0.009,0,2176,2176,0,0,24,0,0,67872180,0.0003,0,0.0085,0,1.539,87.172,0.66,10.83,0.563,4.412,4.412,1,-1,0,0,0,0,0,0,0,0,0,-1,0,0,0,0,0,0,0
67872373,25.1,24.2,0,0,0,-82.6,10.57,1.19,0,0,7795,0.122,0.0003,0,0.0098,0,2243,2243,0,0,24,0,0,67872284,0.0003,0,0.009,0,1.543,87.402,1.13,11.72,1.083,4.503,4.503,1,-1,0,0,0,0,0,0,0,0,0,-1,0,0,0,0,0,0,0
67872462,24.9,24,0,0,0,-94.5,10.66,1.58,0,0,11216,0.164,0.0004,0,0.0114,0,2404,2404,0,0,24,0,0,67872373,0.0003,0,0.0098,0,1.536,86.979,1.34,11.06,1.613,4.643,4.643,1,-1,0,0,0,0,0,0,0,0,0,-1,0,0,0,0,0,0,0
67872557,24.8,23.9,0,0,0,-94.9,10.75,1.81,0,0,11639,0.173,0.0004,0,0.0118,0,2441,2441,0,0,24,0,0,67872463,0.0004,0,0.0114,0,1.555,88.056,1.92,11.66,2.321,4.974,4.974,1,-1,0,0,0,0,0,0,0,0,0,-1,0,0,0,0,0,0,0
67872647,24.4,23.7,0,0,0,-93,10.57,1.9,0,0,13067,0.188,0.0005,0,0.0131,0,2565,2565,0,0,24,0,0,67872557,0.0004,0,0.0118,0,1.565,88.595,1.72,9.9,2.408,5.051,5.051,1,-1,0,0,0,0,0,0,0,0,0,-1,0,0,0,0,0,0,0
67872726,24.8,23.6,0,0,0,-85.7,10.75,2.11,0,0,14551,0.204,0.0006,0,0.015,0,2759,2759,0,0,24,0,0,67872647,0.0005,0,0.0131,0,1.551,87.826,2.04,10.94,2.704,5.31,5.31,1,-1,0,0,0,0,0,0,0,0,0,-1,0,0,0,0,0,0,0
67872811,24.5,23.5,0,0,0,-80.4,10.48,2.16,0,0,15058,0.213,0.0006,0,0.0162,0,2897,2897,0,0,24,0,0,67872726,0.0006,0,0.015,0,1.558,88.21,2.32,11.33,3.011,5.711,5.711,1,-1,0,0,0,0,0,0,0,0,0,-1,0,0,0,0,0,0,0
67872895,24.5,23.5,0,0,0,-76.2,10.64,2.26,0,0,15589,0.215,0.0007,0,0.0176,0,3036,3036,0,0,24,0,0,67872811,0.0006,0,0.0163,0,1.55,87.787,2.08,9.77,3.116,5.995,5.995,1,-1,0,0,0,0,0,0,0,0,0,-1,0,0,0,0,0,0,0
67872965,24.5,23.4,0,0,0,-73.7,10.72,2.34,0,0,15923,0.22,0.0007,0,0.0187,0,3147,3147,0,0,24,0,0,67872895,0.0007,0,0.0176,0,1.551,87.826,2.71,12.53,3.226,6.282,6.282,1,-1,0,0,0,0,0,0,0,0,0,-1,0,0,0,0,0,0,0
67873051,24.4,23.5,0,0,0,-70.1,10.75,2.39,0,0,16338,0.226,0.0008,0,0.02,0,3296,3296,0,0,24,0,0,67872966,0.0007,0,0.0187,0,1.55,87.749,2.66,12.06,3.295,6.514,6.514,1,-1,0,0,0,0,0,0,0,0,0,-1,0,0,0,0,0,0,0
67873121,24.5,23.4,0,0,0,-68.5,10.66,2.4,0,0,16588,0.226,0.0008,0,0.0212,0,3411,3411,0,0,24,0,0,67873052,0.0008,0,0.02,0,1.531,86.71,2.18,9.63,3.381,6.82,6.82,1,-1,0,0,0,0,0,0,0,0,0,-1,0,0,0,0,0,0,0
67873215,24.6,23.4,0,0,0,-68.1,10.8,2.46,0,0,16821,0.23,0.0009,0,0.0229,0,3580,3580,0,0,24,0,0,67873122,0.0008,0,0.0212,0,1.545,87.479,2.42,10.65,3.432,7.061,7.061,1,-1,0,0,0,0,0,0,0,0,0,-1,0,0,0,0,0,0,0
67873298,24.6,23.5,0,0,0,-68.1,10.62,2.44,0,0,16816,0.228,0.0009,0,0.0234,0,3634,3634,0,0,24,0,0,67873216,0.0009,0,0.0229,0,1.556,88.095,2.18,9.46,3.481,7.408,7.408,1,-1,0,0,0,0,0,0,0,0,0,-1,0,0,0,0,0,0,0
67873366,24.5,23.4,0,0,0,-66.9,10.62,2.46,0,0,17098,0.235,0.001,0,0.0254,0,3845,3845,0,0,24,0,0,67873299,0.0009,0,0.0234,0,1.556,88.095,2.79,12.14,3.48,7.52,7.52,1,-1,0,0,0,0,0,0,0,0,0,-1,0,0,0,0,0,0,0
67873436,24.4,23.5,0,0,0,-67.1,10.64,2.48,0,0,17068,0.234,0.001,0,0.0264,0,3969,3969,0,0,24,0,0,67873367,0.001,0,0.0254,0,1.544,87.441,2.08,8.85,3.538,7.957,7.957,1,-1,0,0,0,0,0,0,0,0,0,-1,0,0,0,0,0,0,0
67873525,24.6,23.5,0,0,0,-66.9,10.82,2.54,0,0,17166,0.236,0.0011,0,0.0271,0,4025,4025,0,0,24,0,0,67873437,0.001,0,0.0264,0,1.543,87.402,2.34,9.93,3.532,8.213,8.213,1,-1,0,0,0,0,0,0,0,0,0,-1,0,0,0,0,0,0,0
67873594,24.5,23.6,0,0,0,-68.7,10.75,2.54,0,0,17359,0.236,0.0011,0,0.0292,0,4252,4252,0,0,24,0,0,67873525,0.0011,0,0.0271,0,1.554,87.979,2.11,8.96,3.552,8.329,8.329,1,-1,0,0,0,0,0,0,0,0,0,-1,0,0,0,0,0,0,0
67873675,24.4,23.6,0,0,0,-69.8,10.69,2.53,0,0,17318,0.237,0.0012,0,0.0297,0,4311,4311,0,0,24,0,0,67873594,0.0011,0,0.0292,0,1.549,87.71,2.43,10.28,3.592,8.801,8.801,1,-1,0,0,0,0,0,0,0,0,0,-1,0,0,0,0,0,0,0
67873746,24.7,23.5,0,0,0,-69.7,9.11,2.12,0,0,17148,0.22,0.0012,0,0.0315,0,4529,4529,0,0,24,0,0,67873676,0.0012,0,0.0297,0,1.545,87.518,2.14,8.98,3.584,8.923,8.923,1,-1,0,0,0,0,0,0,0,0,0,-1,0,0,0,0,0,0,0
67873810,24.7,23.6,0,0,0,-70.7,6.21,1.34,0,0,16284,0.213,0.0013,0,0.0321,0,4640,4640,0,0,24,0,0,67873747,0.0012,0,0.0315,0,1.565,88.595,1.25,5.69,3.548,9.372,9.372,1,-1,0,0,0,0,0,0,0,0,0,-1,0,0,0,0,0,0,0
67873899,24.8,23.7,0,0,0,-72.5,6.08,1.28,0,0,16006,0.21,0.0013,0,0.0324,0,4696,4696,0,0,24,0,0,67873810,0.0013,0,0.0321,0,1.55,87.787,1.46,6.84,3.37,9.602,9.602,1,-1,0,0,0,0,0,0,0,0,0,-1,0,0,0,0,0,0,0
67873972,24.6,23.7,0,0,0,-78.1,5.82,1.18,0,0,15024,0.196,0.0013,0,0.0335,0,4904,4904,0,0,24,0,0,67873900,0.0013,0,0.0324,0,1.562,88.48,0.95,4.51,3.312,9.72,9.72,1,-1,0,0,0,0,0,0,0,0,0,-1,0,0,0,0,0,0,0
67874057,25.1,23.8,0,0,0,-81.4,5.6,1.08,0,0,14540,0.19,0.0013,0,0.0341,0,5033,5033,0,0,24,0,0,67873973,0.0013,0,0.0335,0,1.562,88.441,1.25,6.36,3.109,10.148,10.148,1,-1,0,0,0,0,0,0,0,0,0,-1,0,0,0,0,0,0,0
67874131,24.8,23.9,0,0,0,-83.8,5.72,1.08,0,0,14211,0.184,0.0014,0,0.0346,0,5142,5142,0,0,24,0,0,67874058,0.0013,0,0.0341,0,1.524,86.287,1.51,7.86,3.009,10.417,10.417,1,-1,0,0,0,0,0,0,0,0,0,-1,0,0,0,0,0,0,0
67874218,24.6,23.9,0,0,0,-86.4,5.55,1.03,0,0,13880,0.18,0.0014,0,0.0352,0,5271,5271,0,0,24,0,0,67874131,0.0014,0,0.0346,0,1.571,88.941,1.27,6.84,2.941,10.641,10.641,1,-1,0,0,0,0,0,0,0,0,0,-1,0,0,0,0,0,0,0
67874290,24.5,24,0,0,0,-89.2,5.52,1,0,0,13676,0.178,0.0014,0,0.0357,0,5373,5373,0,0,24,0,0,67874218,0.0014,0,0.0352,0,1.563,88.518,0.74,4.1,2.872,10.908,10.908,1,-1,0,0,0,0,0,0,0,0,0,-1,0,0,0,0,0,0,0
67874362,24.5,24,0,0,0,-90.9,5.61,1,0,0,13500,0.177,0.0014,0,0.0362,0,5477,5477,0,0,24,0,0,67874290,0.0014,0,0.0357,0,1.548,87.672,0.89,5.04,2.83,11.119,11.119,1,-1,0,0,0,0,0,0,0,0,0,-1,0,0,0,0,0,0,0
67874434,24.7,24,0,0,0,-92.4,5.42,0.95,0,0,13239,0.173,0.0014,0,0.0367,0,5576,5576,0,0,24,0,0,67874364,0.0014,0,0.0362,0,1.564,88.556,0.82,4.63,2.793,11.334,11.334,1,-1,0,0,0,0,0,0,0,0,0,-1,0,0,0,0,0,0,0
67874516,24.6,24,0,0,0,-93.1,5.52,0.97,0,0,13221,0.18,0.0014,0,0.0369,0,5612,5612,0,0,24,0,0,67874434,0.0014,0,0.0367,0,1.56,88.364,1.35,7.79,2.739,11.539,11.539,1,-1,0,0,0,0,0,0,0,0,0,-1,0,0,0,0,0,0,0
67874589,24.9,24.1,0,0,0,-94.5,5.52,0.96,0,0,12904,0.175,0.0015,0,0.0377,0,5786,5786,0,0,24,0,0,67874516,0.0014,0,0.0369,0,1.553,87.941,0.62,3.48,2.736,11.615,11.615,1,-1,0,0,0,0,0,0,0,0,0,-1,0,0,0,0,0,0,0
67874673,24.8,24.1,0,0,0,-94.7,5.49,0.95,0,0,12822,0.174,0.0015,0,0.0379,0,5827,5827,0,0,24,0,0,67874590,0.0015,0,0.0377,0,1.562,88.441,0.84,4.76,2.67,11.973,11.973,1,-1,0,0,0,0,0,0,0,0,0,-1,0,0,0,0,0,0,0
67874753,24.7,24.2,0,0,0,-95,5.51,0.94,0,0,12807,0.172,0.0015,0,0.0388,0,6005,6005,0,0,24,0,0,67874674,0.0015,0,0.0379,0,1.549,87.71,0.95,5.47,2.653,12.058,12.058,1,-1,0,0,0,0,0,0,0,0,0,-1,0,0,0,0,0,0,0
67874826,24.9,24.1,0,0,0,-95.7,5.5,0.94,0,0,12831,0.17,0.0015,0,0.0392,0,6104,6104,0,0,24,0,0,67874753,0.0015,0,0.0388,0,1.558,88.21,0.61,3.58,2.65,12.427,12.427,1,-1,0,0,0,0,0,0,0,0,0,-1,0,0,0,0,0,0,0
67874891,24.6,24.3,0,0,0,-96.3,5.65,0.96,0,0,12842,0.17,0.0016,0,0.0397,0,6193,6193,0,0,24,0,0,67874826,0.0015,0,0.0392,0,1.555,88.056,0.94,5.54,2.655,12.631,12.631,1,-1,0,0,0,0,0,0,0,0,0,-1,0,0,0,0,0,0,0
67874960,24.9,24.3,0,0,0,-96.4,5.57,0.95,0,0,12898,0.169,0.0016,0,0.0401,0,6282,6282,0,0,24,0,0,67874892,0.0016,0,0.0397,0,1.558,88.249,1.26,7.35,2.657,12.816,12.816,1,-1,0,0,0,0,0,0,0,0,0,-1,0,0,0,0,0,0,0
67875026,24.9,24.2,0,0,0,-97.4,5.52,0.94,0,0,12913,0.171,0.0016,0,0.0406,0,6372,6372,0,0,24,0,0,67874960,0.0016,0,0.0401,0,1.573,89.095,0.89,5.29,2.669,13,13,1,-1,0,0,0,0,0,0,0,0,0,-1,0,0,0,0,0,0,0
67875109,24.9,24.2,0,0,0,-97.4,5.67,0.96,0,0,12790,0.174,0.0016,0,0.0408,0,6413,6413,0,0,24,0,0,67875027,0.0016,0,0.0406,0,1.572,89.018,0.72,4.2,2.672,13.186,13.186,1,-1,0,0,0,0,0,0,0,0,0,-1,0,0,0,0,0,0,0
67875177,24.9,24.1,0,0,0,-96.9,5.43,0.92,0,0,12733,0.171,0.0016,0,0.0415,0,6572,6572,0,0,24,0,0,67875109,0.0016,0,0.0408,0,1.554,87.979,0.97,5.61,2.647,13.271,13.271,1,-1,0,0,0,0,0,0,0,0,0,-1,0,0,0,0,0,0,0
67875244,24.6,24.2,0,0,0,-96.8,5.51,0.93,0,0,12683,0.171,0.0017,0,0.0419,0,6659,6659,0,0,24,0,0,67875178,0.0016,0,0.0415,0,1.571,88.98,0.66,3.87,2.635,13.6,13.6,1,-1,0,0,0,0,0,0,0,0,0,-1,0,0,0,0,0,0,0
67875309,24.7,24.2,0,0,0,-97.1,5.5,0.93,0,0,12527,0.167,0.0017,0,0.0424,0,6745,6745,0,0,24,0,0,67875244,0.0017,0,0.0419,0,1.563,88.518,0.86,5.01,2.624,13.78,13.78,1,-1,0,0,0,0,0,0,0,0,0,-1,0,0,0,0,0,0,0
67875391,24.9,24.2,0,0,0,-96.9,5.52,0.93,0,0,12485,0.169,0.0017,0,0.0426,0,6787,6787,0,0,24,0,0,67875309,0.0017,0,0.0424,0,1.564,88.556,1.02,6.15,2.592,13.958,13.958,1,-1,0,0,0,0,0,0,0,0,0,-1,0,0,0,0,0,0,0
67875458,24.7,24.2,0,0,0,-96.2,5.62,0.95,0,0,12676,0.169,0.0017,0,0.0433,0,6940,6940,0,0,24,0,0,67875391,0.0017,0,0.0426,0,1.571,88.98,0.96,5.66,2.583,14.047,14.047,1,-1,0,0,0,0,0,0,0,0,0,-1,0,0,0,0,0,0,0
67875524,24.6,24.2,0,0,0,-96.1,5.63,0.95,0,0,12508,0.169,0.0017,0,0.0438,0,7028,7028,0,0,24,0,0,67875458,0.0017,0,0.0433,0,1.551,87.826,1.02,6.09,2.623,14.364,14.364,1,-1,0,0,0,0,0,0,0,0,0,-1,0,0,0,0,0,0,0
67875592,24.8,24.2,0,0,0,-97.1,5.7,0.96,0,0,12673,0.171,0.0017,0,0.0442,0,7118,7118,0,0,24,0,0,67875525,0.0017,0,0.0438,0,1.56,88.326,0.89,5.29,2.588,14.546,14.546,1,-1,0,0,0,0,0,0,0,0,0,-1,0,0,0,0,0,0,0
67875672,24.8,24.3,0,0,0,-97.4,5.78,0.98,0,0,12621,0.176,0.0018,0,0.0448,0,7223,7223,0,0,24,0,0,67875592,0.0017,0,0.0442,0,1.566,88.672,0.69,4.08,2.622,14.732,14.732,1,-1,0,0,0,0,0,0,0,0,0,-1,0,0,0,0,0,0,0
67875741,24.6,24.2,0,0,0,-97.6,5.86,1,0,0,12709,0.171,0.0018,0,0.0452,0,7313,7313,0,0,24,0,0,67875672,0.0018,0,0.0448,0,1.531,86.672,0.73,4.18,2.612,14.947,14.947,1,-1,0,0,0,0,0,0,0,0,0,-1,0,0,0,0,0,0,0
67875826,24.5,24.4,0,0,0,-98,5.69,0.96,0,0,12802,0.171,0.0018,0,0.0458,0,7426,7426,0,0,24,0,0,67875741,0.0018,0,0.0452,0,1.54,87.21,0.93,5.47,2.63,15.133,15.133,1,-1,0,0,0,0,0,0,0,0,0,-1,0,0,0,0,0,0,0
67875892,24.8,24.3,0,0,0,-97.1,5.72,0.97,0,0,12610,0.167,0.0018,0,0.0463,0,7515,7515,0,0,24,0,0,67875826,0.0018,0,0.0458,0,1.567,88.71,0.92,5.39,2.649,15.367,15.367,1,-1,0,0,0,0,0,0,0,0,0,-1,0,0,0,0,0,0,0
67875960,24.7,24.2,0,0,0,-97.1,5.8,0.98,0,0,12647,0.17,0.0018,0,0.0467,0,7603,7603,0,0,24,0,0,67875892,0.0018,0,0.0463,0,1.571,88.98,1.02,6.07,2.609,15.552,15.552,1,-1,0,0,0,0,0,0,0,0,0,-1,0,0,0,0,0,0,0
67876029,24.7,24.2,0,0,0,-96.7,5.86,1,0,0,12638,0.171,0.0019,0,0.0472,0,7694,7694,0,0,24,0,0,67875961,0.0018,0,0.0467,0,1.562,88.441,0.94,5.49,2.617,15.734,15.734,1,-1,0,0,0,0,0,0,0,0,0,-1,0,0,0,0,0,0,0
67876111,24.7,24.3,0,0,0,-96.8,5.7,0.97,0,0,12743,0.169,0.0019,0,0.0474,0,7735,7735,0,0,24,0,0,67876029,0.0019,0,0.0472,0,1.559,88.287,0.86,5.02,2.615,15.922,15.922,1,-1,0,0,0,0,0,0,0,0,0,-1,0,0,0,0,0,0,0
67876184,24.9,24.2,0,0,0,-96.9,5.81,0.99,0,0,12684,0.169,0.0019,0,0.0482,0,7899,7899,0,0,24,0,0,67876112,0.0019,0,0.0474,0,1.56,88.364,1.02,6.04,2.637,16.009,16.009,1,-1,0,0,0,0,0,0,0,0,0,-1,0,0,0,0,0,0,0
67876256,25,24.2,0,0,0,-96.7,5.91,1,0,0,12773,0.172,0.0019,0,0.0487,0,7994,7994,0,0,24,0,0,67876184,0.0019,0,0.0482,0,1.554,87.979,1.15,6.79,2.625,16.346,16.346,1,-1,0,0,0,0,0,0,0,0,0,-1,0,0,0,0,0,0,0
67876334,25.1,24.2,0,0,0,-97,5.94,1.01,0,0,12752,0.172,0.0019,0,0.0489,0,8026,8026,0,0,24,0,0,67876256,0.0019,0,0.0487,0,1.569,88.826,0.94,5.49,2.643,16.543,16.543,1,-1,0,0,0,0,0,0,0,0,0,-1,0,0,0,0,0,0,0
67876406,25,24.3,0,0,0,-97.4,5.84,1,0,0,12876,0.172,0.002,0,0.0497,0,8191,8191,0,0,24,0,0,67876334,0.0019,0,0.0489,0,1.534,86.864,0.87,4.98,2.639,16.609,16.609,1,-1,0,0,0,0,0,0,0,0,0,-1,0,0,0,0,0,0,0
67876494,24.8,24.3,0,0,0,-97.1,5.89,1.01,0,0,12739,0.171,0.002,0,0.0503,0,8310,8310,0,0,24,0,0,67876406,0.002,0,0.0497,0,1.558,88.21,1.03,6.01,2.664,16.953,16.953,1,-1,0,0,0,0,0,0,0,0,0,-1,0,0,0,0,0,0,0
67876567,24.7,24.3,0,0,0,-96.5,6.06,1.04,0,0,12861,0.172,0.002,0,0.0508,0,8407,8407,0,0,24,0,0,67876494,0.002,0,0.0503,0,1.528,86.518,1.17,6.83,2.636,17.197,17.197,1,-1,0,0,0,0,0,0,0,0,0,-1,0,0,0,0,0,0,0
67876651,24.7,24.2,0,0,0,-96.2,6.11,1.05,0,0,12894,0.172,0.002,0,0.0511,0,8446,8446,0,0,24,0,0,67876567,0.002,0,0.0508,0,1.562,88.441,0.96,5.6,2.661,17.397,17.397,1,-1,0,0,0,0,0,0,0,0,0,-1,0,0,0,0,0,0,0
67876751,24.7,24,0,0,0,-88.3,9.95,1.88,0,0,14227,0.201,0.0021,0,0.0531,0,8661,8661,0,0,24,0,0,67876651,0.002,0,0.0511,0,1.563,88.518,0.95,5.49,2.668,17.478,17.478,1,-1,0,0,0,0,0,0,0,0,0,-1,0,0,0,0,0,0,0
67876810,24.4,23.9,0,0,0,-83.9,12.16,2.5,0,0,14811,0.208,0.0021,0,0.0539,0,8751,8751,0,0,24,0,0,67876751,0.0021,0,0.0531,0,1.563,88.518,2.42,12.05,2.944,17.923,17.923,1,-1,0,0,0,0,0,0,0,0,0,-1,0,0,0,0,0,0,0
67876903,24.5,23.9,0,0,0,-80.7,12.28,2.61,0,0,15080,0.216,0.0022,0,0.0546,0,8810,8810,0,0,24,0,0,67876810,0.0021,0,0.0539,0,1.546,87.556,2.61,12.48,3.065,18.109,18.109,1,-1,0,0,0,0,0,0,0,0,0,-1,0,0,0,0,0,0,0
67876978,24.3,23.9,0,0,0,-72,12.31,2.72,0,0,16235,0.227,0.0023,0,0.057,0,9025,9025,0,0,24,0,0,67876903,0.0022,0,0.0546,0,1.538,87.095,2.65,12.26,3.12,18.231,18.231,1,-1,0,0,0,0,0,0,0,0,0,-1,0,0,0,0,0,0,0
67877056,24.4,23.9,0,0,0,-69.6,12.37,2.87,0,0,16794,0.236,0.0023,0,0.0586,0,9161,9161,0,0,24,0,0,67876978,0.0023,0,0.057,0,1.537,87.018,2.7,11.93,3.359,18.676,18.676,1,-1,0,0,0,0,0,0,0,0,0,-1,0,0,0,0,0,0,0
67877129,24.3,24,0,0,0,-69.7,12.32,2.94,0,0,17637,0.241,0.0024,0,0.06,0,9290,9290,0,0,24,0,0,67877057,0.0023,0,0.0586,0,1.545,87.518,2.82,11.94,3.475,18.958,18.958,1,-1,0,0,0,0,0,0,0,0,0,-1,0,0,0,0,0,0,0
67877216,24.3,24,0,0,0,-70.8,12.38,3.01,0,0,17499,0.244,0.0024,0,0.0606,0,9348,9348,0,0,24,0,0,67877129,0.0024,0,0.06,0,1.544,87.441,3.5,14.43,3.65,19.225,19.225,1,-1,0,0,0,0,0,0,0,0,0,-1,0,0,0,0,0,0,0
67877306,24.5,24.1,0,0,0,-74.3,12.22,3.03,0,0,18107,0.251,0.0025,0,0.0637,0,9621,9621,0,0,24,0,0,67877216,0.0024,0,0.0606,0,1.55,87.787,2.78,11.45,3.621,19.345,19.345,1,-1,0,0,0,0,0,0,0,0,0,-1,0,0,0,0,0,0,0
67877400,24.4,24.3,0,0,0,-75.8,12.24,3.09,0,0,18270,0.253,0.0026,0,0.0646,0,9697,9697,0,0,24,0,0,67877306,0.0025,0,0.0637,0,1.537,87.018,2.65,10.58,3.747,19.91,19.91,1,-1,0,0,0,0,0,0,0,0,0,-1,0,0,0,0,0,0,0
67877490,24.7,24.2,0,0,0,-78.9,12.29,3.18,0,0,18701,0.266,0.0027,0,0.0666,0,9878,9878,0,0,24,0,0,67877401,0.0026,0,0.0646,0,1.533,86.787,3.55,14.02,3.78,20.069,20.069,1,-1,0,0,0,0,0,0,0,0,0,-1,0,0,0,0,0,0,0
67877589,24.8,24.5,0,0,0,-81.7,12.28,3.26,0,0,19400,0.268,0.0028,0,0.0699,0,10176,10176,0,0,24,0,0,67877490,0.0027,0,0.0666,0,1.537,87.056,3.09,11.65,3.87,20.444,20.444,1,-1,0,0,0,0,0,0,0,0,0,-1,0,0,0,0,0,0,0
67877684,24.3,24.6,0,0,0,-82.1,12.14,3.29,0,0,19316,0.267,0.0028,0,0.0706,0,10252,10252,0,0,24,0,0,67877589,0.0028,0,0.0699,0,1.54,87.21,3.26,12.18,4.014,21.058,21.058,1,-1,0,0,0,0,0,0,0,0,0,-1,0,0,0,0,0,0,0
67877775,24.9,24.7,0,0,0,-85.1,12.33,3.39,0,0,19761,0.279,0.0029,0,0.0727,0,10440,10440,0,0,24,0,0,67877684,0.0028,0,0.0706,0,1.53,86.633,3.85,14.4,3.997,21.216,21.216,1,-1,0,0,0,0,0,0,0,0,0,-1,0,0,0,0,0,0,0
67877869,24.6,24.4,0,0,0,-85.7,12.08,3.36,0,0,20033,0.281,0.003,0,0.075,0,10638,10638,0,0,24,0,0,67877776,0.0029,0,0.0727,0,1.55,87.749,3.18,11.39,4.089,21.605,21.605,1,-1,0,0,0,0,0,0,0,0,0,-1,0,0,0,0,0,0,0
67877962,25,24.3,0,0,0,-85.1,12.07,3.4,0,0,20281,0.282,0.0031,0,0.0772,0,10834,10834,0,0,24,0,0,67877869,0.003,0,0.075,0,1.529,86.595,3.89,13.86,4.145,22.014,22.014,1,-1,0,0,0,0,0,0,0,0,0,-1,0,0,0,0,0,0,0
67878054,24.5,24.4,0,0,0,-86.5,11.99,3.4,0,0,20431,0.284,0.0032,0,0.0793,0,11033,11033,0,0,24,0,0,67877963,0.0031,0,0.0772,0,1.555,88.056,4.27,14.95,4.197,22.42,22.42,1,-1,0,0,0,0,0,0,0,0,0,-1,0,0,0,0,0,0,0
67878146,25.2,24.7,0,0,0,-88.1,12.05,3.45,0,0,20641,0.285,0.0033,0,0.0828,0,11347,11347,0,0,24,0,0,67878054,0.0032,0,0.0793,0,1.522,86.21,3.81,13.43,4.228,22.832,22.832,1,-1,0,0,0,0,0,0,0,0,0,-1,0,0,0,0,0,0,0
67878224,24.2,24.8,0,0,0,-89.2,12,3.44,0,0,20756,0.285,0.0034,0,0.0847,0,11516,11516,0,0,24,0,0,67878147,0.0033,0,0.0828,0,1.537,87.018,3.42,12.01,4.271,23.482,23.482,1,-1,0,0,0,0,0,0,0,0,0,-1,0,0,0,0,0,0,0
67878304,24.6,24.8,0,0,0,-89.4,11.97,3.44,0,0,20563,0.29,0.0034,0,0.0852,0,11571,11571,0,0,24,0,0,67878225,0.0034,0,0.0847,0,1.569,88.826,3.61,12.56,4.295,23.831,23.831,1,-1,0,0,0,0,0,0,0,0,0,-1,0,0,0,0,0,0,0
67878377,24.3,24.6,0,0,0,-88.3,12.18,3.52,0,0,20691,0.286,0.0035,0,0.0884,0,11845,11845,0,0,24,0,0,67878305,0.0034,0,0.0852,0,1.528,86.518,3.37,11.65,4.255,23.947,23.947,1,-1,0,0,0,0,0,0,0,0,0,-1,0,0,0,0,0,0,0
67878462,24.3,24.7,0,0,0,-89.7,12.1,3.5,0,0,20824,0.287,0.0036,0,0.0891,0,11912,11912,0,0,24,0,0,67878377,0.0035,0,0.0884,0,1.554,88.018,3.8,13.29,4.282,24.512,24.512,1,-1,0,0,0,0,0,0,0,0,0,-1,0,0,0,0,0,0,0
67878555,24.4,24.6,0,0,0,-87.7,12.02,3.49,0,0,20934,0.29,0.0037,0,0.0925,0,12231,12231,0,0,24,0,0,67878462,0.0036,0,0.0891,0,1.539,87.172,4.38,15.18,4.309,24.651,24.651,1,-1,0,0,0,0,0,0,0,0,0,-1,0,0,0,0,0,0,0
67878627,25.1,24.9,0,0,0,-89,11.99,3.48,0,0,20853,0.294,0.0038,0,0.0941,0,12388,12388,0,0,24,0,0,67878556,0.0037,0,0.0925,0,1.562,88.441,2.82,9.68,4.332,25.311,25.311,1,-1,0,0,0,0,0,0,0,0,0,-1,0,0,0,0,0,0,0
67878716,24.8,24.7,0,0,0,-89.2,12.03,3.49,0,0,20920,0.289,0.0038,0,0.0949,0,12453,12453,0,0,24,0,0,67878628,0.0038,0,0.0941,0,1.56,88.326,3.51,11.94,4.315,25.638,25.638,1,-1,0,0,0,0,0,0,0,0,0,-1,0,0,0,0,0,0,0
67878806,24.3,24.4,0,0,0,-88.4,12.05,3.51,0,0,20902,0.288,0.0039,0,0.0985,0,12780,12780,0,0,24,0,0,67878716,0.0038,0,0.0949,0,1.564,88.556,2.94,10.15,4.329,25.771,25.771,1,-1,0,0,0,0,0,0,0,0,0,-1,0,0,0,0,0,0,0
67878881,25.1,24.6,0,0,0,-88.1,12.11,3.52,0,0,20914,0.288,0.004,0,0.1004,0,12943,12943,0,0,24,0,0,67878807,0.0039,0,0.0985,0,1.572,89.018,4.31,14.99,4.325,26.447,26.447,1,-1,0,0,0,0,0,0,0,0,0,-1,0,0,0,0,0,0,0
67878961,25.3,24.7,0,0,0,-87.7,11.96,3.49,0,0,21002,0.29,0.004,0,0.1009,0,13000,13000,0,0,24,0,0,67878881,0.004,0,0.1004,0,1.543,87.364,3.81,13.14,4.328,26.787,26.787,1,-1,0,0,0,0,0,0,0,0,0,-1,0,0,0,0,0,0,0
67879035,24.9,24.8,0,0,0,-89.9,12.01,3.5,0,0,20923,0.291,0.0042,0,0.1041,0,13281,13281,0,0,24,0,0,67878962,0.004,0,0.1009,0,1.549,87.71,4.16,14.28,4.346,26.903,26.903,1,-1,0,0,0,0,0,0,0,0,0,-1,0,0,0,0,0,0,0
67879119,25,24.7,0,0,0,-89.3,11.98,3.49,0,0,21003,0.292,0.0042,0,0.1048,0,13342,13342,0,0,24,0,0,67879036,0.0042,0,0.1041,0,1.539,87.133,2.81,9.62,4.33,27.484,27.484,1,-1,0,0,0,0,0,0,0,0,0,-1,0,0,0,0,0,0,0
