ms_today,input_voltage,temp_mos_max,temp_mos_1,temp_mos_2,temp_mos_3,temp_motor,current_motor,current_in,d_axis_current,q_axis_current,erpm,duty_cycle,amp_hours_used,amp_hours_charged,watt_hours_used,watt_hours_charged,tachometer,tachometer_abs,encoder_position,fault_code,vesc_id,d_axis_voltage,q_axis_voltage,ms_today_setup,amp_hours_setup,amp_hours_charged_setup,watt_hours_setup,watt_hours_charged_setup,battery_level,battery_wh_tot,current_in_setup,current_motor_setup,speed_meters_per_sec,tacho_meters,tacho_abs_meters,num_vescs,ms_today_imu,roll,pitch,yaw,accX,accY,accZ,gyroX,gyroY,gyroZ,gnss_posTime,gnss_lat,gnss_lon,gnss_alt,gnss_gVel,gnss_vVel,gnss_hAcc,gnss_vAcc
61651262,49.6,28.7,0,0,0,-86.4,0,0,0,0,2951,0.021,0.0475,0,2.2995,0,93084,93084,0,0,24,0,0,-1,0,0,0,0,0,0,0,0,0,0,0,0,-1,0,0,0,0,0,0,0,0,0,-1,0,0,0,0,0,0,0
61651290,50.7,29.2,0,0,0,-91.2,0.06,0,0,0,2734,0.018,0.0475,0,2.2995,0,93098,93098,0,0,24,0,0,-1,0,0,0,0,0,0,0,0,0,0,0,0,-1,0,0,0,0,0,0,0,0,0,-1,0,0,0,0,0,0,0
61651321,49,28.8,0,0,0,-89.5,-0.01,0,0,0,2601,0.017,0.0475,0,2.2995,0,93106,93106,0,0,24,0,0,61651320,0.0475,0,2.2995,0,2.688,152.22,0,0,0.565,192.662,192.662,1,-1,0,0,0,0,0,0,0,0,0,-1,0,0,0,0,0,0,0
61651346,49.4,28.9,0,0,0,-89.5,0.03,0,0,0,2548,0.017,0.0475,0,2.2995,0,93110,93110,0,0,24,0,0,61651320,0.0475,0,2.2995,0,2.688,152.22,0,0,0.565,192.662,192.662,1,-1,0,0,0,0,0,0,0,0,0,-1,0,0,0,0,0,0,0
61651378,49.7,28.8,0,0,0,-88.9,0.04,0,0,0,2385,0.016,0.0475,0,2.2995,0,93117,93117,0,0,24,0,0,61651346,0.0475,0,2.2995,0,2.675,151.451,-0.01,-0.67,0.527,192.687,192.687,1,-1,0,0,0,0,0,0,0,0,0,-1,0,0,0,0,0,0,0
61651420,49.2,28.7,0,0,0,-86.8,0.03,0,0,0,2113,0.014,0.0475,0,2.2995,0,93129,93129,0,0,24,0,0,61651378,0.0475,0,2.2995,0,2.66,150.605,0,-0.08,0.493,192.702,192.702,1,-1,0,0,0,0,0,0,0,0,0,-1,0,0,0,0,0,0,0
61651446,50,28.5,0,0,0,-84.3,-0.03,0,0,0,2006,0.013,0.0475,0,2.2995,0,93134,93134,0,0,24,0,0,61651420,0.0475,0,2.2995,0,2.657,150.451,-0.01,-0.87,0.437,192.726,192.726,1,-1,0,0,0,0,0,0,0,0,0,-1,0,0,0,0,0,0,0
61651477,50.9,28.4,0,0,0,-82,0.02,0,0,0,1885,0.012,0.0475,0,2.2995,0,93139,93139,0,0,24,0,0,61651446,0.0475,0,2.2995,0,2.715,153.721,0,0.23,0.415,192.737,192.737,1,-1,0,0,0,0,0,0,0,0,0,-1,0,0,0,0,0,0,0
61651508,49.1,28.6,0,0,0,-81.5,0.07,0,0,0,1807,0.011,0.0475,0,2.2995,0,93142,93142,0,0,24,0,0,61651477,0.0475,0,2.2995,0,2.66,150.605,0,-0.56,0.39,192.747,192.747,1,-1,0,0,0,0,0,0,0,0,0,-1,0,0,0,0,0,0,0
61651534,49.9,28.6,0,0,0,-80.2,0.07,0,0,0,1647,0.01,0.0475,0,2.2995,0,93147,93147,0,0,24,0,0,61651508,0.0475,0,2.2995,0,2.66,150.605,0,-0.5,0.374,192.753,192.753,1,-1,0,0,0,0,0,0,0,0,0,-1,0,0,0,0,0,0,0
61651570,49.6,28.9,0,0,0,-81.6,0.02,0,0,0,1446,0.009,0.0475,0,2.2995,0,93154,93154,0,0,24,0,0,61651534,0.0475,0,2.2995,0,2.701,152.913,0,0.2,0.341,192.764,192.764,1,-1,0,0,0,0,0,0,0,0,0,-1,0,0,0,0,0,0,0
61651600,50.4,28.6,0,0,0,-81.3,0.04,0,0,0,1322,0.008,0.0475,0,2.2995,0,93157,93157,0,0,24,0,0,61651573,0.0475,0,2.2995,0,2.645,149.758,0,0,0.299,192.778,192.778,1,-1,0,0,0,0,0,0,0,0,0,-1,0,0,0,0,0,0,0
61651644,49.1,28.5,0,0,0,-79.9,0,0,0,0,1075,0.006,0.0475,0,2.2995,0,93162,93162,0,0,24,0,0,61651603,0.0475,0,2.2995,0,2.72,153.99,0,0.47,0.273,192.784,192.784,1,-1,0,0,0,0,0,0,0,0,0,-1,0,0,0,0,0,0,0
61651677,49.2,29,0,0,0,-84.2,-0.02,0,0,0,902,0.005,0.0475,0,2.2995,0,93164,93164,0,0,24,0,0,61651644,0.0475,0,2.2995,0,2.652,150.182,0,-0.22,0.222,192.795,192.795,1,-1,0,0,0,0,0,0,0,0,0,-1,0,0,0,0,0,0,0
61651735,50.6,29,0,0,0,-89.5,0.04,0,0,0,244,0.003,0.0475,0,2.2995,0,93165,93165,0,0,24,0,0,61651677,0.0475,0,2.2995,0,2.667,151.028,0,-0.91,0.186,192.799,192.799,1,-1,0,0,0,0,0,0,0,0,0,-1,0,0,0,0,0,0,0
61651768,50.9,28.8,0,0,0,-88.1,0.09,0,0,0,129,0.002,0.0475,0,2.2995,0,93165,93165,0,0,24,0,0,61651735,0.0475,0,2.2995,0,2.642,149.566,0,0.21,0.05,192.801,192.801,1,-1,0,0,0,0,0,0,0,0,0,-1,0,0,0,0,0,0,0
61651800,49.6,28.8,0,0,0,-87.5,0.1,0,0,0,88,0.001,0.0475,0,2.2995,0,93165,93165,0,0,24,0,0,61651768,0.0475,0,2.2995,0,2.642,149.566,0,0.16,0.026,192.801,192.801,1,-1,0,0,0,0,0,0,0,0,0,-1,0,0,0,0,0,0,0
61651826,49.5,28.6,0,0,0,-87.1,0.12,0,0,0,71,0.001,0.0475,0,2.2995,0,93165,93165,0,0,24,0,0,61651800,0.0475,0,2.2995,0,2.688,152.182,0,-0.18,0.018,192.801,192.801,1,-1,0,0,0,0,0,0,0,0,0,-1,0,0,0,0,0,0,0
61651856,50.4,28.9,0,0,0,-87.3,0,0,0,0,58,0,0.0475,0,2.2995,0,93165,93165,0,0,24,0,0,61651855,0.0475,0,2.2995,0,2.654,150.297,0,0.09,0.014,192.801,192.801,1,-1,0,0,0,0,0,0,0,0,0,-1,0,0,0,0,0,0,0
61651884,49.8,28.9,0,0,0,-89.2,0.06,0,0,0,49,0,0.0475,0,2.2995,0,93165,93165,0,0,24,0,0,61651855,0.0475,0,2.2995,0,2.654,150.297,0,0.09,0.014,192.801,192.801,1,-1,0,0,0,0,0,0,0,0,0,-1,0,0,0,0,0,0,0
61651913,49.1,28.3,0,0,0,-88.2,-0.12,0,0,0,46,0,0.0475,0,2.2995,0,93165,93165,0,0,24,0,0,61651884,0.0475,0,2.2995,0,2.66,150.605,0,0.11,0.01,192.801,192.801,1,-1,0,0,0,0,0,0,0,0,0,-1,0,0,0,0,0,0,0
61651944,49.5,28.2,0,0,0,-86.4,0.06,0,0,0,37,0,0.0475,0,2.2995,0,93165,93165,0,0,24,0,0,61651913,0.0475,0,2.2995,0,2.71,153.413,0,0.62,0.009,192.801,192.801,1,-1,0,0,0,0,0,0,0,0,0,-1,0,0,0,0,0,0,0
61651978,50,28.5,0,0,0,-84.4,0,0,0,0,33,0,0.0475,0,2.2995,0,93165,93165,0,0,24,0,0,61651944,0.0475,0,2.2995,0,2.681,151.797,0,-0.31,0.007,192.801,192.801,1,-1,0,0,0,0,0,0,0,0,0,-1,0,0,0,0,0,0,0
61652005,49.8,28.7,0,0,0,-84.5,0.12,0,0,0,30,0,0.0475,0,2.2995,0,93165,93165,0,0,24,0,0,61651982,0.0475,0,2.2995,0,2.72,153.99,0,-0.33,0.006,192.801,192.801,1,-1,0,0,0,0,0,0,0,0,0,-1,0,0,0,0,0,0,0
61652045,49.8,28.1,0,0,0,-81.2,0.1,0,0,0,27,0,0.0475,0,2.2995,0,93165,93165,0,0,24,0,0,61652010,0.0475,0,2.2995,0,2.655,150.335,0,0.49,0.006,192.801,192.801,1,-1,0,0,0,0,0,0,0,0,0,-1,0,0,0,0,0,0,0
61652070,49.5,29,0,0,0,-84.5,0.07,0,0,0,25,0,0.0475,0,2.2995,0,93165,93165,0,0,24,0,0,61652048,0.0475,0,2.2995,0,2.701,152.913,0,0.36,0.005,192.801,192.801,1,-1,0,0,0,0,0,0,0,0,0,-1,0,0,0,0,0,0,0
61652102,50.7,28.5,0,0,0,-84,0.12,0,0,0,24,0,0.0475,0,2.2995,0,93165,93165,0,0,24,0,0,61652073,0.0475,0,2.2995,0,2.741,155.221,0,-0.2,0.005,192.801,192.801,1,-1,0,0,0,0,0,0,0,0,0,-1,0,0,0,0,0,0,0
61652131,50.9,28,0,0,0,-79.5,0.08,0,0,0,21,0,0.0475,0,2.2995,0,93165,93165,0,0,24,0,0,61652102,0.0475,0,2.2995,0,2.714,153.644,0,0.45,0.005,192.801,192.801,1,-1,0,0,0,0,0,0,0,0,0,-1,0,0,0,0,0,0,0
61652159,51,28.5,0,0,0,-79,0.1,0,0,0,20,0,0.0475,0,2.2995,0,93165,93165,0,0,24,0,0,61652131,0.0475,0,2.2995,0,2.646,149.835,0,0.69,0.004,192.801,192.801,1,-1,0,0,0,0,0,0,0,0,0,-1,0,0,0,0,0,0,0
61652194,50.8,28.7,0,0,0,-82.1,0.01,0,0,0,19,0,0.0475,0,2.2995,0,93165,93165,0,0,24,0,0,61652163,0.0475,0,2.2995,0,2.718,153.874,0,0.35,0.004,192.801,192.801,1,-1,0,0,0,0,0,0,0,0,0,-1,0,0,0,0,0,0,0
61652224,50.7,28.1,0,0,0,-82,0.08,0,0,0,18,0,0.0475,0,2.2995,0,93165,93165,0,0,24,0,0,61652194,0.0475,0,2.2995,0,2.657,150.451,0,0.32,0.003,192.801,192.801,1,-1,0,0,0,0,0,0,0,0,0,-1,0,0,0,0,0,0,0
61652259,49.3,28.7,0,0,0,-83.8,-0.09,0,0,0,16,0,0.0475,0,2.2995,0,93165,93165,0,0,24,0,0,61652224,0.0475,0,2.2995,0,2.639,149.412,0,-0.36,0.003,192.801,192.801,1,-1,0,0,0,0,0,0,0,0,0,-1,0,0,0,0,0,0,0
61652292,49.4,28.5,0,0,0,-84,0.11,0,0,0,16,0,0.0475,0,2.2995,0,93165,93165,0,0,24,0,0,61652260,0.0475,0,2.2995,0,2.666,150.951,0,-0.99,0.003,192.801,192.801,1,-1,0,0,0,0,0,0,0,0,0,-1,0,0,0,0,0,0,0
61652343,50.5,28.1,0,0,0,-86.1,0.05,0,0,0,14,0,0.0475,0,2.2995,0,93165,93165,0,0,24,0,0,61652292,0.0475,0,2.2995,0,2.676,151.528,0,0.07,0.003,192.801,192.801,1,-1,0,0,0,0,0,0,0,0,0,-1,0,0,0,0,0,0,0
61652393,50.1,28.7,0,0,0,-89.8,0.12,0,0,0,13,0,0.0475,0,2.2995,0,93165,93165,0,0,24,0,0,61652343,0.0475,0,2.2995,0,2.68,151.72,0,0.05,0.003,192.801,192.801,1,-1,0,0,0,0,0,0,0,0,0,-1,0,0,0,0,0,0,0
61652427,49,28.2,0,0,0,-89.3,0.08,0,0,0,13,0,0.0475,0,2.2995,0,93165,93165,0,0,24,0,0,61652393,0.0475,0,2.2995,0,2.664,150.836,0,-0.41,0.002,192.801,192.801,1,-1,0,0,0,0,0,0,0,0,0,-1,0,0,0,0,0,0,0
61652479,50.8,28.3,0,0,0,-85.7,0.07,0,0,0,12,0,0.0475,0,2.2995,0,93165,93165,0,0,24,0,0,61652427,0.0475,0,2.2995,0,2.72,154.028,0,-1.3,0.002,192.801,192.801,1,-1,0,0,0,0,0,0,0,0,0,-1,0,0,0,0,0,0,0
61652519,49,28.5,0,0,0,-86.7,0.07,0,0,0,11,0,0.0475,0,2.2995,0,93165,93165,0,0,24,0,0,61652479,0.0475,0,2.2995,0,2.717,153.836,0,0.82,0.002,192.801,192.801,1,-1,0,0,0,0,0,0,0,0,0,-1,0,0,0,0,0,0,0
61652545,49.3,28.4,0,0,0,-86,0.06,0,0,0,11,0,0.0475,0,2.2995,0,93165,93165,0,0,24,0,0,61652520,0.0475,0,2.2995,0,2.652,150.143,0,0.15,0.002,192.801,192.801,1,-1,0,0,0,0,0,0,0,0,0,-1,0,0,0,0,0,0,0
61652587,50.6,28.4,0,0,0,-85.2,0.08,0,0,0,10,0,0.0475,0,2.2995,0,93165,93165,0,0,24,0,0,61652545,0.0475,0,2.2995,0,2.698,152.759,0,-0.89,0.002,192.801,192.801,1,-1,0,0,0,0,0,0,0,0,0,-1,0,0,0,0,0,0,0
61652612,50.2,28.9,0,0,0,-85.8,0.12,0,0,0,10,0,0.0475,0,2.2995,0,93165,93165,0,0,24,0,0,61652606,0.0475,0,2.2995,0,2.673,151.374,0,-0.34,0.002,192.801,192.801,1,-1,0,0,0,0,0,0,0,0,0,-1,0,0,0,0,0,0,0
61652654,50.1,28.1,0,0,0,-83.3,0.08,0,0,0,9,0,0.0475,0,2.2995,0,93165,93165,0,0,24,0,0,61652606,0.0475,0,2.2995,0,2.673,151.374,0,-0.34,0.002,192.801,192.801,1,-1,0,0,0,0,0,0,0,0,0,-1,0,0,0,0,0,0,0
61652730,50.1,28.1,0,0,0,-81.6,0.02,0,0,0,9,0,0.0475,0,2.2995,0,93165,93165,0,0,24,0,0,61652661,0.0475,0,2.2995,0,2.685,152.028,0,-0.46,0.002,192.801,192.801,1,-1,0,0,0,0,0,0,0,0,0,-1,0,0,0,0,0,0,0
61652776,50.4,28.2,0,0,0,-83.8,0.09,0,0,0,8,0,0.0475,0,2.2995,0,93165,93165,0,0,24,0,0,61652730,0.0475,0,2.2995,0,2.726,154.336,0,0.4,0.001,192.801,192.801,1,-1,0,0,0,0,0,0,0,0,0,-1,0,0,0,0,0,0,0
61652795,49.9,28.5,0,0,0,-84.8,0.08,0,0,0,8,0,0.0475,0,2.2995,0,93165,93165,0,0,24,0,0,61652776,0.0475,0,2.2995,0,2.668,151.066,0,0.05,0.001,192.801,192.801,1,-1,0,0,0,0,0,0,0,0,0,-1,0,0,0,0,0,0,0
61652837,49.3,28.3,0,0,0,-83.6,0,0,0,0,8,0,0.0475,0,2.2995,0,93165,93165,0,0,24,0,0,61652795,0.0475,0,2.2995,0,2.665,150.874,0,-0.02,0.001,192.801,192.801,1,-1,0,0,0,0,0,0,0,0,0,-1,0,0,0,0,0,0,0
61652916,50,28.3,0,0,0,-83.6,0.13,0,0,0,8,0,0.0475,0,2.2995,0,93165,93165,0,0,24,0,0,61652837,0.0475,0,2.2995,0,2.687,152.143,0,-0.36,0.001,192.801,192.801,1,-1,0,0,0,0,0,0,0,0,0,-1,0,0,0,0,0,0,0
61652970,50.1,28.5,0,0,0,-84.8,0.05,0,0,0,7,0,0.0475,0,2.2995,0,93165,93165,0,0,24,0,0,61652916,0.0475,0,2.2995,0,2.673,151.336,0,0.32,0.001,192.801,192.801,1,-1,0,0,0,0,0,0,0,0,0,-1,0,0,0,0,0,0,0
61653033,49.9,28.3,0,0,0,-86,0.12,0,0,0,7,0,0.0475,0,2.2995,0,93165,93165,0,0,24,0,0,61652970,0.0475,0,2.2995,0,2.673,151.374,0,-0.28,0.001,192.801,192.801,1,-1,0,0,0,0,0,0,0,0,0,-1,0,0,0,0,0,0,0
61653097,49.6,28.4,0,0,0,-86.5,0.13,0,0,0,6,0,0.0475,0,2.2995,0,93165,93165,0,0,24,0,0,61653033,0.0475,0,2.2995,0,2.713,153.605,0,1.04,0.001,192.801,192.801,1,-1,0,0,0,0,0,0,0,0,0,-1,0,0,0,0,0,0,0
61653163,49.8,28.6,0,0,0,-90.4,0.1,0,0,0,6,0,0.0475,0,2.2995,0,93165,93165,0,0,24,0,0,61653097,0.0475,0,2.2995,0,2.729,154.528,0,-0.22,0.001,192.801,192.801,1,-1,0,0,0,0,0,0,0,0,0,-1,0,0,0,0,0,0,0
61653219,50.3,28,0,0,0,-89.5,0.13,0,0,0,6,0,0.0475,0,2.2995,0,93165,93165,0,0,24,0,0,61653172,0.0475,0,2.2995,0,2.724,154.221,0,0.04,0.001,192.801,192.801,1,-1,0,0,0,0,0,0,0,0,0,-1,0,0,0,0,0,0,0
61653276,49.9,28.7,0,0,0,-91,0.1,0,0,0,6,0,0.0475,0,2.2995,0,93165,93165,0,0,24,0,0,61653219,0.0475,0,2.2995,0,2.716,153.759,0,-0.1,0.001,192.801,192.801,1,-1,0,0,0,0,0,0,0,0,0,-1,0,0,0,0,0,0,0
61653337,49.7,28.4,0,0,0,-91.2,0.08,0,0,0,5,0,0.0475,0,2.2995,0,93165,93165,0,0,24,0,0,61653282,0.0475,0,2.2995,0,2.726,154.375,0,-0.4,0.001,192.801,192.801,1,-1,0,0,0,0,0,0,0,0,0,-1,0,0,0,0,0,0,0
61653370,49.2,28.2,0,0,0,-86,0.05,0,0,0,5,0,0.0475,0,2.2995,0,93165,93165,0,0,24,0,0,61653338,0.0475,0,2.2995,0,2.722,154.105,0,0.02,0.001,192.801,192.801,1,-1,0,0,0,0,0,0,0,0,0,-1,0,0,0,0,0,0,0
61653406,50.8,27.8,0,0,0,-84,0.09,0,0,0,5,0,0.0475,0,2.2995,0,93165,93165,0,0,24,0,0,61653370,0.0475,0,2.2995,0,2.669,151.105,0,-1.06,0.001,192.801,192.801,1,-1,0,0,0,0,0,0,0,0,0,-1,0,0,0,0,0,0,0
61653461,50.8,28.7,0,0,0,-85.9,0.08,0,0,0,5,0,0.0475,0,2.2995,0,93165,93165,0,0,24,0,0,61653406,0.0475,0,2.2995,0,2.638,149.374,0,-0.39,0.001,192.801,192.801,1,-1,0,0,0,0,0,0,0,0,0,-1,0,0,0,0,0,0,0
61653488,50.4,28.1,0,0,0,-84.6,-0.05,0,0,0,5,0,0.0475,0,2.2995,0,93165,93165,0,0,24,0,0,61653461,0.0475,0,2.2995,0,2.683,151.913,0,-0.21,0.001,192.801,192.801,1,-1,0,0,0,0,0,0,0,0,0,-1,0,0,0,0,0,0,0
61653518,49.8,28.1,0,0,0,-85.4,0,0,0,0,5,0,0.0475,0,2.2995,0,93165,93165,0,0,24,0,0,61653488,0.0475,0,2.2995,0,2.693,152.451,0,0.35,0.001,192.801,192.801,1,-1,0,0,0,0,0,0,0,0,0,-1,0,0,0,0,0,0,0
61653558,50.3,28.5,0,0,0,-86.7,0.13,0,0,0,5,0,0.0475,0,2.2995,0,93165,93165,0,0,24,0,0,61653518,0.0475,0,2.2995,0,2.669,151.105,0,-0.54,0.001,192.801,192.801,1,-1,0,0,0,0,0,0,0,0,0,-1,0,0,0,0,0,0,0
61653589,49.2,28,0,0,0,-86.3,0.07,0,0,0,5,0,0.0475,0,2.2995,0,93165,93165,0,0,24,0,0,61653558,0.0475,0,2.2995,0,2.714,153.644,0,-0.13,0.001,192.801,192.801,1,-1,0,0,0,0,0,0,0,0,0,-1,0,0,0,0,0,0,0
61653648,49.2,28.3,0,0,0,-87.7,0.16,0,0,0,4,0,0.0475,0,2.2995,0,93165,93165,0,0,24,0,0,61653589,0.0475,0,2.2995,0,2.665,150.874,0,-0.54,0.001,192.801,192.801,1,-1,0,0,0,0,0,0,0,0,0,-1,0,0,0,0,0,0,0
61653681,50.3,27.9,0,0,0,-86.1,0.04,0,0,0,4,0,0.0475,0,2.2995,0,93165,93165,0,0,24,0,0,61653649,0.0475,0,2.2995,0,2.719,153.951,0,-0.14,0.001,192.801,192.801,1,-1,0,0,0,0,0,0,0,0,0,-1,0,0,0,0,0,0,0
61653743,50.8,27.7,0,0,0,-84.5,-0.03,0,0,0,4,0,0.0475,0,2.2995,0,93165,93165,0,0,24,0,0,61653682,0.0475,0,2.2995,0,2.725,154.298,0,-0.37,0,192.801,192.801,1,-1,0,0,0,0,0,0,0,0,0,-1,0,0,0,0,0,0,0
61653771,50.4,27.8,0,0,0,-85,0.04,0,0,0,4,0,0.0475,0,2.2995,0,93165,93165,0,0,24,0,0,61653744,0.0475,0,2.2995,0,2.657,150.412,0,-0.55,0,192.801,192.801,1,-1,0,0,0,0,0,0,0,0,0,-1,0,0,0,0,0,0,0
61653806,49,27.8,0,0,0,-85.1,0.05,0,0,0,4,0,0.0475,0,2.2995,0,93165,93165,0,0,24,0,0,61653771,0.0475,0,2.2995,0,2.693,152.451,0,0.29,0,192.801,192.801,1,-1,0,0,0,0,0,0,0,0,0,-1,0,0,0,0,0,0,0
61653868,49.8,28,0,0,0,-84.5,0.1,0,0,0,4,0,0.0475,0,2.2995,0,93165,93165,0,0,24,0,0,61653806,0.0475,0,2.2995,0,2.65,150.028,0,0,0,192.801,192.801,1,-1,0,0,0,0,0,0,0,0,0,-1,0,0,0,0,0,0,0
61653932,49.2,27.8,0,0,0,-86.1,0.07,0,0,0,4,0,0.0475,0,2.2995,0,93165,93165,0,0,24,0,0,61653868,0.0475,0,2.2995,0,2.713,153.605,0,-0.62,0,192.801,192.801,1,-1,0,0,0,0,0,0,0,0,0,-1,0,0,0,0,0,0,0
61653993,50.7,28.3,0,0,0,-87,0.08,0,0,0,4,0,0.0475,0,2.2995,0,93165,93165,0,0,24,0,0,61653932,0.0475,0,2.2995,0,2.686,152.067,0,0.41,0,192.801,192.801,1,-1,0,0,0,0,0,0,0,0,0,-1,0,0,0,0,0,0,0
61654026,49.4,28.1,0,0,0,-86.4,0.1,0,0,0,4,0,0.0475,0,2.2995,0,93165,93165,0,0,24,0,0,61653993,0.0475,0,2.2995,0,2.641,149.528,0,0.67,0,192.801,192.801,1,-1,0,0,0,0,0,0,0,0,0,-1,0,0,0,0,0,0,0
61654076,49.4,27.6,0,0,0,-83.2,0.03,0,0,0,4,0,0.0475,0,2.2995,0,93165,93165,0,0,24,0,0,61654026,0.0475,0,2.2995,0,2.68,151.759,0,-0.15,0,192.801,192.801,1,-1,0,0,0,0,0,0,0,0,0,-1,0,0,0,0,0,0,0
61654115,50.3,28.1,0,0,0,-84.3,0.13,0,0,0,3,0,0.0475,0,2.2995,0,93165,93165,0,0,24,0,0,61654076,0.0475,0,2.2995,0,2.646,149.797,0,0.38,0,192.801,192.801,1,-1,0,0,0,0,0,0,0,0,0,-1,0,0,0,0,0,0,0
61654150,50.5,27.8,0,0,0,-84.3,0.09,0,0,0,3,0,0.0475,0,2.2995,0,93165,93165,0,0,24,0,0,61654115,0.0475,0,2.2995,0,2.656,150.374,0,0.79,0,192.801,192.801,1,-1,0,0,0,0,0,0,0,0,0,-1,0,0,0,0,0,0,0
61654210,49.2,27.9,0,0,0,-82.4,-0.04,0,0,0,3,0,0.0475,0,2.2995,0,93165,93165,0,0,24,0,0,61654150,0.0475,0,2.2995,0,2.657,150.412,0,-0.42,0,192.801,192.801,1,-1,0,0,0,0,0,0,0,0,0,-1,0,0,0,0,0,0,0
61654243,50.8,27.9,0,0,0,-82,0.07,0,0,0,3,0,0.0475,0,2.2995,0,93165,93165,0,0,24,0,0,61654211,0.0475,0,2.2995,0,2.67,151.182,0,-0.54,0,192.801,192.801,1,-1,0,0,0,0,0,0,0,0,0,-1,0,0,0,0,0,0,0
61654315,49.1,28,0,0,0,-83.3,0.08,0,0,0,3,0,0.0475,0,2.2995,0,93165,93165,0,0,24,0,0,61654244,0.0475,0,2.2995,0,2.637,149.297,0,-0.5,0,192.801,192.801,1,-1,0,0,0,0,0,0,0,0,0,-1,0,0,0,0,0,0,0
61654373,49.3,27.7,0,0,0,-83.9,0.07,0,0,0,3,0,0.0475,0,2.2995,0,93165,93165,0,0,24,0,0,61654315,0.0475,0,2.2995,0,2.708,153.336,0,-0.7,0,192.801,192.801,1,-1,0,0,0,0,0,0,0,0,0,-1,0,0,0,0,0,0,0
61654428,49.5,28,0,0,0,-85.4,-0.03,0,0,0,3,0,0.0475,0,2.2995,0,93165,93165,0,0,24,0,0,61654373,0.0475,0,2.2995,0,2.67,151.182,0,-0.33,0,192.801,192.801,1,-1,0,0,0,0,0,0,0,0,0,-1,0,0,0,0,0,0,0
61654492,49.7,27.8,0,0,0,-82,0.06,0,0,0,3,0,0.0475,0,2.2995,0,93165,93165,0,0,24,0,0,61654428,0.0475,0,2.2995,0,2.697,152.682,0,-0.27,0,192.801,192.801,1,-1,0,0,0,0,0,0,0,0,0,-1,0,0,0,0,0,0,0
61654553,50.9,27.3,0,0,0,-79.1,0.11,0,0,0,3,0,0.0475,0,2.2995,0,93165,93165,0,0,24,0,0,61654492,0.0475,0,2.2995,0,2.652,150.143,0,0.67,0,192.801,192.801,1,-1,0,0,0,0,0,0,0,0,0,-1,0,0,0,0,0,0,0
61654587,51,27.8,0,0,0,-79.6,0.1,0,0,0,3,0,0.0475,0,2.2995,0,93165,93165,0,0,24,0,0,61654553,0.0475,0,2.2995,0,2.726,154.336,0,0.22,0,192.801,192.801,1,-1,0,0,0,0,0,0,0,0,0,-1,0,0,0,0,0,0,0
61654647,50.7,28,0,0,0,-82.2,0.04,0,0,0,3,0,0.0475,0,2.2995,0,93165,93165,0,0,24,0,0,61654587,0.0475,0,2.2995,0,2.649,149.989,0,0.34,0,192.801,192.801,1,-1,0,0,0,0,0,0,0,0,0,-1,0,0,0,0,0,0,0
61654681,49.2,28,0,0,0,-83.5,0.07,0,0,0,3,0,0.0475,0,2.2995,0,93165,93165,0,0,24,0,0,61654647,0.0475,0,2.2995,0,2.647,149.874,0,0.2,0,192.801,192.801,1,-1,0,0,0,0,0,0,0,0,0,-1,0,0,0,0,0,0,0
61654727,50.8,28,0,0,0,-87.7,0.1,0,0,0,3,0,0.0475,0,2.2995,0,93165,93165,0,0,24,0,0,61654681,0.0475,0,2.2995,0,2.658,150.489,0,0.56,0,192.801,192.801,1,-1,0,0,0,0,0,0,0,0,0,-1,0,0,0,0,0,0,0
61654770,50.4,28,0,0,0,-87.7,-0.05,0,0,0,3,0,0.0475,0,2.2995,0,93165,93165,0,0,24,0,0,61654732,0.0475,0,2.2995,0,2.674,151.413,0,-0.04,0,192.801,192.801,1,-1,0,0,0,0,0,0,0,0,0,-1,0,0,0,0,0,0,0
61654802,50.6,27.8,0,0,0,-91.7,0.09,0,0,0,3,0,0.0475,0,2.2995,0,93165,93165,0,0,24,0,0,61654770,0.0475,0,2.2995,0,2.661,150.682,0,-0.67,0,192.801,192.801,1,-1,0,0,0,0,0,0,0,0,0,-1,0,0,0,0,0,0,0
61654843,50.1,28.1,0,0,0,-90.8,0.04,0,0,0,3,0,0.0475,0,2.2995,0,93165,93165,0,0,24,0,0,61654803,0.0475,0,2.2995,0,2.688,152.22,0,0.5,0,192.801,192.801,1,-1,0,0,0,0,0,0,0,0,0,-1,0,0,0,0,0,0,0
61654895,49.2,28,0,0,0,-91,0.13,0,0,0,3,0,0.0475,0,2.2995,0,93165,93165,0,0,24,0,0,61654844,0.0475,0,2.2995,0,2.697,152.72,0,-0.53,0,192.801,192.801,1,-1,0,0,0,0,0,0,0,0,0,-1,0,0,0,0,0,0,0
61654958,50.4,27.7,0,0,0,-88.8,0.12,0,0,0,2,0,0.0475,0,2.2995,0,93165,93165,0,0,24,0,0,61654895,0.0475,0,2.2995,0,2.648,149.951,0,0.77,0,192.801,192.801,1,-1,0,0,0,0,0,0,0,0,0,-1,0,0,0,0,0,0,0
61655034,50.9,27.8,0,0,0,-83.8,0.01,0,0,0,2,0,0.0475,0,2.2995,0,93165,93165,0,0,24,0,0,61654959,0.0475,0,2.2995,0,2.678,151.605,0,0.77,0,192.801,192.801,1,-1,0,0,0,0,0,0,0,0,0,-1,0,0,0,0,0,0,0
61655086,49.7,28.2,0,0,0,-82.1,0.1,0,0,0,2,0,0.0475,0,2.2995,0,93165,93165,0,0,24,0,0,61655035,0.0475,0,2.2995,0,2.682,151.836,0,-0.02,0,192.801,192.801,1,-1,0,0,0,0,0,0,0,0,0,-1,0,0,0,0,0,0,0
61655149,50,27.8,0,0,0,-81.1,0,0,0,0,2,0,0.0475,0,2.2995,0,93165,93165,0,0,24,0,0,61655086,0.0475,0,2.2995,0,2.685,152.028,0,0.43,0,192.801,192.801,1,-1,0,0,0,0,0,0,0,0,0,-1,0,0,0,0,0,0,0
61655183,49,27.9,0,0,0,-84.6,0.03,0,0,0,2,0,0.0475,0,2.2995,0,93165,93165,0,0,24,0,0,61655150,0.0475,0,2.2995,0,2.686,152.105,0,0.79,0,192.801,192.801,1,-1,0,0,0,0,0,0,0,0,0,-1,0,0,0,0,0,0,0
61655243,50.2,27.9,0,0,0,-80.1,0.07,0,0,0,2,0,0.0475,0,2.2995,0,93165,93165,0,0,24,0,0,61655183,0.0475,0,2.2995,0,2.66,150.605,0,-0.39,0,192.801,192.801,1,-1,0,0,0,0,0,0,0,0,0,-1,0,0,0,0,0,0,0
61655301,50.4,27.8,0,0,0,-79.4,0.04,0,0,0,2,0,0.0475,0,2.2995,0,93165,93165,0,0,24,0,0,61655243,0.0475,0,2.2995,0,2.713,153.605,0,0.63,0,192.801,192.801,1,-1,0,0,0,0,0,0,0,0,0,-1,0,0,0,0,0,0,0
61655345,50.7,28.1,0,0,0,-83.6,0.07,0,0,0,2,0,0.0475,0,2.2995,0,93165,93165,0,0,24,0,0,61655301,0.0475,0,2.2995,0,2.665,150.912,0,-0.11,0,192.801,192.801,1,-1,0,0,0,0,0,0,0,0,0,-1,0,0,0,0,0,0,0
61655396,50.7,28.1,0,0,0,-84.1,0.06,0,0,0,2,0,0.0475,0,2.2995,0,93165,93165,0,0,24,0,0,61655345,0.0475,0,2.2995,0,2.646,149.797,0,-0.67,0,192.801,192.801,1,-1,0,0,0,0,0,0,0,0,0,-1,0,0,0,0,0,0,0
61655430,50.2,28.3,0,0,0,-89,0.08,0,0,0,2,0,0.0475,0,2.2995,0,93165,93165,0,0,24,0,0,61655396,0.0475,0,2.2995,0,2.647,149.874,0,0.21,0,192.801,192.801,1,-1,0,0,0,0,0,0,0,0,0,-1,0,0,0,0,0,0,0
61655481,49,27.5,0,0,0,-86.2,0.13,0,0,0,2,0,0.0475,0,2.2995,0,93165,93165,0,0,24,0,0,61655430,0.0475,0,2.2995,0,2.697,152.682,0,0.44,0,192.801,192.801,1,-1,0,0,0,0,0,0,0,0,0,-1,0,0,0,0,0,0,0
61655514,50.2,27.9,0,0,0,-85,-0.1,0,0,0,2,0,0.0475,0,2.2995,0,93165,93165,0,0,24,0,0,61655481,0.0475,0,2.2995,0,2.726,154.375,0,-0.16,0,192.801,192.801,1,-1,0,0,0,0,0,0,0,0,0,-1,0,0,0,0,0,0,0
61655548,50,27.8,0,0,0,-86.2,0.18,0,0,0,2,0,0.0475,0,2.2995,0,93165,93165,0,0,24,0,0,61655515,0.0475,0,2.2995,0,2.718,153.913,0,-0.62,0,192.801,192.801,1,-1,0,0,0,0,0,0,0,0,0,-1,0,0,0,0,0,0,0
61655595,49.6,28.1,0,0,0,-85.2,0.08,0,0,0,2,0,0.0475,0,2.2995,0,93165,93165,0,0,24,0,0,61655548,0.0475,0,2.2995,0,2.659,150.528,0,0.81,0,192.801,192.801,1,-1,0,0,0,0,0,0,0,0,0,-1,0,0,0,0,0,0,0
61655645,50.7,28.2,0,0,0,-85.6,0.06,0,0,0,2,0,0.0475,0,2.2995,0,93165,93165,0,0,24,0,0,61655602,0.0475,0,2.2995,0,2.642,149.566,0,0.4,0,192.801,192.801,1,-1,0,0,0,0,0,0,0,0,0,-1,0,0,0,0,0,0,0
61655708,49.6,27.4,0,0,0,-85,0,0,0,0,2,0,0.0475,0,2.2995,0,93165,93165,0,0,24,0,0,61655646,0.0475,0,2.2995,0,2.644,149.682,0,-0.49,0,192.801,192.801,1,-1,0,0,0,0,0,0,0,0,0,-1,0,0,0,0,0,0,0
61655741,49.3,27.2,0,0,0,-79.6,0.13,0,0,0,2,0,0.0475,0,2.2995,0,93165,93165,0,0,24,0,0,61655709,0.0475,0,2.2995,0,2.701,152.951,0,0,0,192.801,192.801,1,-1,0,0,0,0,0,0,0,0,0,-1,0,0,0,0,0,0,0
61655774,49,27.8,0,0,0,-80.1,0.08,0,0,0,2,0,0.0475,0,2.2995,0,93165,93165,0,0,24,0,0,61655741,0.0475,0,2.2995,0,2.731,154.644,0,-0.91,0,192.801,192.801,1,-1,0,0,0,0,0,0,0,0,0,-1,0,0,0,0,0,0,0
61655810,49.7,27.4,0,0,0,-78.2,0.03,0,0,0,2,0,0.0475,0,2.2995,0,93165,93165,0,0,24,0,0,61655774,0.0475,0,2.2995,0,2.663,150.759,0,0.79,0,192.801,192.801,1,-1,0,0,0,0,0,0,0,0,0,-1,0,0,0,0,0,0,0
61655864,49.9,27.8,0,0,0,-80.2,-0.1,0,0,0,2,0,0.0475,0,2.2995,0,93165,93165,0,0,24,0,0,61655810,0.0475,0,2.2995,0,2.697,152.682,0,-0.32,0,192.801,192.801,1,-1,0,0,0,0,0,0,0,0,0,-1,0,0,0,0,0,0,0
61655895,50.7,27.7,0,0,0,-84.2,0.15,0,0,0,2,0,0.0475,0,2.2995,0,93165,93165,0,0,24,0,0,61655864,0.0475,0,2.2995,0,2.671,151.259,0,0.1,0,192.801,192.801,1,-1,0,0,0,0,0,0,0,0,0,-1,0,0,0,0,0,0,0
61655945,50.6,28,0,0,0,-85.4,0.04,0,0,0,2,0,0.0475,0,2.2995,0,93165,93165,0,0,24,0,0,61655895,0.0475,0,2.2995,0,2.65,150.028,0,0.29,0,192.801,192.801,1,-1,0,0,0,0,0,0,0,0,0,-1,0,0,0,0,0,0,0
61655988,49.8,27.5,0,0,0,-83.9,-0.07,0,0,0,2,0,0.0475,0,2.2995,0,93165,93165,0,0,24,0,0,61655945,0.0475,0,2.2995,0,2.726,154.336,0,0.7,0,192.801,192.801,1,-1,0,0,0,0,0,0,0,0,0,-1,0,0,0,0,0,0,0
61656021,49.2,27.6,0,0,0,-81.7,0,0,0,0,2,0,0.0475,0,2.2995,0,93165,93165,0,0,24,0,0,61655988,0.0475,0,2.2995,0,2.654,150.259,0,-0.81,0,192.801,192.801,1,-1,0,0,0,0,0,0,0,0,0,-1,0,0,0,0,0,0,0
61656056,50.4,28.1,0,0,0,-83.6,0.01,0,0,0,2,0,0.0475,0,2.2995,0,93165,93165,0,0,24,0,0,61656021,0.0475,0,2.2995,0,2.728,154.452,0,-0.45,0,192.801,192.801,1,-1,0,0,0,0,0,0,0,0,0,-1,0,0,0,0,0,0,0
61656089,50.7,28,0,0,0,-85.8,0.03,0,0,0,2,0,0.0475,0,2.2995,0,93165,93165,0,0,24,0,0,61656056,0.0475,0,2.2995,0,2.654,150.297,0,0.3,0,192.801,192.801,1,-1,0,0,0,0,0,0,0,0,0,-1,0,0,0,0,0,0,0
61656144,50.9,27.7,0,0,0,-85.6,0,0,0,0,2,0,0.0475,0,2.2995,0,93165,93165,0,0,24,0,0,61656089,0.0475,0,2.2995,0,2.666,150.951,0,0.43,0,192.801,192.801,1,-1,0,0,0,0,0,0,0,0,0,-1,0,0,0,0,0,0,0
61656175,49,27.6,0,0,0,-83.5,0.1,0,0,0,2,0,0.0475,0,2.2995,0,93165,93165,0,0,24,0,0,61656144,0.0475,0,2.2995,0,2.647,149.874,0,-1.36,0,192.801,192.801,1,-1,0,0,0,0,0,0,0,0,0,-1,0,0,0,0,0,0,0
61656207,49.5,27.5,0,0,0,-81.7,0.09,0,0,0,2,0,0.0475,0,2.2995,0,93165,93165,0,0,24,0,0,61656175,0.0475,0,2.2995,0,2.706,153.221,0,-0.39,0,192.801,192.801,1,-1,0,0,0,0,0,0,0,0,0,-1,0,0,0,0,0,0,0
61656239,49.4,27.9,0,0,0,-83.8,0.11,0,0,0,2,0,0.0475,0,2.2995,0,93165,93165,0,0,24,0,0,61656207,0.0475,0,2.2995,0,2.677,151.566,0,0.89,0,192.801,192.801,1,-1,0,0,0,0,0,0,0,0,0,-1,0,0,0,0,0,0,0
61656274,49.5,27.9,0,0,0,-83.2,0.02,0,0,0,2,0,0.0475,0,2.2995,0,93165,93165,0,0,24,0,0,61656239,0.0475,0,2.2995,0,2.689,152.259,0,-0.67,0,192.801,192.801,1,-1,0,0,0,0,0,0,0,0,0,-1,0,0,0,0,0,0,0
61656307,50.7,27.4,0,0,0,-82.9,0.1,0,0,0,2,0,0.0475,0,2.2995,0,93165,93165,0,0,24,0,0,61656274,0.0475,0,2.2995,0,2.68,151.759,0,-0.08,0,192.801,192.801,1,-1,0,0,0,0,0,0,0,0,0,-1,0,0,0,0,0,0,0
61656361,49.3,27.3,0,0,0,-81.1,-0.01,0,0,0,2,0,0.0475,0,2.2995,0,93165,93165,0,0,24,0,0,61656307,0.0475,0,2.2995,0,2.659,150.566,0,-0.69,0,192.801,192.801,1,-1,0,0,0,0,0,0,0,0,0,-1,0,0,0,0,0,0,0
61656394,50.4,27.6,0,0,0,-81.8,-0.01,0,0,0,2,0,0.0475,0,2.2995,0,93165,93165,0,0,24,0,0,61656362,0.0475,0,2.2995,0,2.644,149.682,0,-0.31,0,192.801,192.801,1,-1,0,0,0,0,0,0,0,0,0,-1,0,0,0,0,0,0,0
61656446,50.1,27.5,0,0,0,-79.8,0.02,0,0,0,2,0,0.0475,0,2.2995,0,93165,93165,0,0,24,0,0,61656394,0.0475,0,2.2995,0,2.721,154.067,0,-0.32,0,192.801,192.801,1,-1,0,0,0,0,0,0,0,0,0,-1,0,0,0,0,0,0,0
61656484,49.5,27.5,0,0,0,-79.9,-0.02,0,0,0,2,0,0.0475,0,2.2995,0,93165,93165,0,0,24,0,0,61656446,0.0475,0,2.2995,0,2.717,153.836,0,0.65,0,192.801,192.801,1,-1,0,0,0,0,0,0,0,0,0,-1,0,0,0,0,0,0,0
61656529,51,27.6,0,0,0,-80.7,0.07,0,0,0,1,0,0.0475,0,2.2995,0,93165,93165,0,0,24,0,0,61656484,0.0475,0,2.2995,0,2.687,152.143,0,-0.52,0,192.801,192.801,1,-1,0,0,0,0,0,0,0,0,0,-1,0,0,0,0,0,0,0
61656580,49.2,27.6,0,0,0,-82.5,0.09,0,0,0,1,0,0.0475,0,2.2995,0,93165,93165,0,0,24,0,0,61656529,0.0475,0,2.2995,0,2.674,151.413,0,0.71,0,192.801,192.801,1,-1,0,0,0,0,0,0,0,0,0,-1,0,0,0,0,0,0,0
61656612,50.5,27.8,0,0,0,-82.2,0.06,0,0,0,1,0,0.0475,0,2.2995,0,93165,93165,0,0,24,0,0,61656580,0.0475,0,2.2995,0,2.718,153.913,0,-0.22,0,192.801,192.801,1,-1,0,0,0,0,0,0,0,0,0,-1,0,0,0,0,0,0,0
61656662,49.4,27.6,0,0,0,-82.9,0.15,0,0,0,1,0.005,0.0475,0,2.2995,0,93166,93166,0,0,24,0,0,61656612,0.0475,0,2.2995,0,2.701,152.951,0,0.34,0,192.801,192.801,1,-1,0,0,0,0,0,0,0,0,0,-1,0,0,0,0,0,0,0
61656705,49,27.5,0,0,0,-82.1,4.31,0.03,0,0,33,0.016,0.0475,0,2.2995,0,93167,93167,0,0,24,0,0,61656663,0.0475,0,2.2995,0,2.66,150.605,0.02,4.32,0,192.803,192.803,1,-1,0,0,0,0,0,0,0,0,0,-1,0,0,0,0,0,0,0
61656734,49,27.6,0,0,0,-82.1,7.37,0.13,0,0,102,0.024,0.0475,0,2.2996,0,93169,93169,0,0,24,0,0,61656731,0.0475,0,2.2995,0,2.677,151.566,0.11,6.22,0.006,192.805,192.805,1,-1,0,0,0,0,0,0,0,0,0,-1,0,0,0,0,0,0,0
61656774,49.1,27.6,0,0,0,-86.7,9.13,0.3,0,0,2188,0.043,0.0475,0,2.2997,0,93180,93180,0,0,24,0,0,61656731,0.0475,0,2.2995,0,2.677,151.566,0.11,6.22,0.006,192.805,192.805,1,-1,0,0,0,0,0,0,0,0,0,-1,0,0,0,0,0,0,0
61656814,49,27.1,0,0,0,-84.8,9.9,0.48,0,0,4691,0.058,0.0475,0,2.3,0,93200,93200,0,0,24,0,0,61656774,0.0475,0,2.2997,0,2.666,150.951,0.41,9.78,0.452,192.832,192.832,1,-1,0,0,0,0,0,0,0,0,0,-1,0,0,0,0,0,0,0
61656842,50.5,27.5,0,0,0,-85.8,10.93,0.71,0,0,6607,0.072,0.0475,0,2.3002,0,93218,93218,0,0,24,0,0,61656814,0.0475,0,2.3,0,2.639,149.412,0.53,9.14,0.97,192.873,192.873,1,-1,0,0,0,0,0,0,0,0,0,-1,0,0,0,0,0,0,0
61656896,50,27.2,0,0,0,-81.5,11.73,1.09,0,0,11043,0.107,0.0475,0,2.301,0,93273,93273,0,0,24,0,0,61656842,0.0475,0,2.3002,0,2.709,153.374,0.79,10.95,1.367,192.911,192.911,1,-1,0,0,0,0,0,0,0,0,0,-1,0,0,0,0,0,0,0
61656952,50.5,27.9,0,0,0,-83.6,11.92,1.38,0,0,13107,0.123,0.0475,0,2.3016,0,93314,93314,0,0,24,0,0,61656896,0.0475,0,2.301,0,2.692,152.413,1.32,12.48,2.285,193.024,193.024,1,-1,0,0,0,0,0,0,0,0,0,-1,0,0,0,0,0,0,0
61656985,48.9,27.9,0,0,0,-90.1,11.87,1.67,0,0,16885,0.155,0.0475,0,2.3027,0,93407,93407,0,0,24,0,0,61656952,0.0475,0,2.3016,0,2.678,151.605,1.57,12.8,2.712,193.111,193.111,1,-1,0,0,0,0,0,0,0,0,0,-1,0,0,0,0,0,0,0
61657025,48.8,27.4,0,0,0,-92.1,12.32,2.02,0,0,19665,0.172,0.0475,0,2.3041,0,93489,93489,0,0,24,0,0,61656985,0.0475,0,2.3027,0,2.675,151.451,1.84,11.82,3.494,193.302,193.302,1,-1,0,0,0,0,0,0,0,0,0,-1,0,0,0,0,0,0,0
61657111,48.9,27.1,0,0,0,-89.3,13.03,2.39,0,0,21852,0.191,0.0476,0,2.3054,0,93582,93582,0,0,24,0,0,61657025,0.0475,0,2.3041,0,2.631,148.951,2.2,12.77,4.069,193.471,193.471,1,-1,0,0,0,0,0,0,0,0,0,-1,0,0,0,0,0,0,0
61657149,49.2,27,0,0,0,-81.2,12.8,2.63,0,0,25802,0.218,0.0476,0,2.3083,0,93786,93786,0,0,24,0,0,61657111,0.0476,0,2.3054,0,2.667,150.989,2.36,12.36,4.522,193.664,193.664,1,-1,0,0,0,0,0,0,0,0,0,-1,0,0,0,0,0,0,0
61657194,48.7,26.8,0,0,0,-77.4,12.64,2.82,0,0,26960,0.229,0.0477,0,2.3094,0,93871,93871,0,0,24,0,0,61657150,0.0476,0,2.3083,0,2.678,151.605,2.64,12.05,5.339,194.086,194.086,1,-1,0,0,0,0,0,0,0,0,0,-1,0,0,0,0,0,0,0
61657225,48.6,27.1,0,0,0,-76.1,13.14,3.08,0,0,28332,0.239,0.0477,0,2.3107,0,93961,93961,0,0,24,0,0,61657194,0.0477,0,2.3094,0,2.666,150.951,2.78,12.11,5.579,194.264,194.264,1,-1,0,0,0,0,0,0,0,0,0,-1,0,0,0,0,0,0,0
61657257,50,27,0,0,0,-74.8,13.1,3.21,0,0,29512,0.251,0.0477,0,2.312,0,94058,94058,0,0,24,0,0,61657225,0.0477,0,2.3107,0,2.623,148.527,2.71,11.34,5.863,194.45,194.45,1,-1,0,0,0,0,0,0,0,0,0,-1,0,0,0,0,0,0,0
61657291,50.4,27.6,0,0,0,-77.7,12.89,3.32,0,0,30916,0.264,0.0477,0,2.3134,0,94161,94161,0,0,24,0,0,61657257,0.0477,0,2.312,0,2.664,150.836,2.9,11.51,6.107,194.651,194.651,1,-1,0,0,0,0,0,0,0,0,0,-1,0,0,0,0,0,0,0
61657318,48.7,27.6,0,0,0,-78.7,12.9,3.46,0,0,32209,0.273,0.0478,0,2.3148,0,94263,94263,0,0,24,0,0,61657291,0.0477,0,2.3134,0,2.674,151.413,3.77,14.26,6.398,194.864,194.864,1,-1,0,0,0,0,0,0,0,0,0,-1,0,0,0,0,0,0,0
61657357,48.4,27.5,0,0,0,-82.4,12.58,3.53,0,0,34165,0.288,0.0478,0,2.3177,0,94458,94458,0,0,24,0,0,61657318,0.0478,0,2.3148,0,2.624,148.566,3.38,12.38,6.665,195.073,195.073,1,-1,0,0,0,0,0,0,0,0,0,-1,0,0,0,0,0,0,0
61657396,50.2,27.7,0,0,0,-85.2,12.98,3.82,0,0,35636,0.298,0.0479,0,2.3193,0,94600,94600,0,0,24,0,0,61657366,0.0478,0,2.3177,0,2.665,150.874,3.47,12.07,7.07,195.477,195.477,1,-1,0,0,0,0,0,0,0,0,0,-1,0,0,0,0,0,0,0
61657491,48.6,27.6,0,0,0,-86.9,13.18,4.02,0,0,37063,0.312,0.0479,0,2.3221,0,94777,94777,0,0,24,0,0,61657396,0.0479,0,2.3193,0,2.663,150.797,5.29,17.74,7.374,195.771,195.771,1,-1,0,0,0,0,0,0,0,0,0,-1,0,0,0,0,0,0,0
61657531,49.2,27.7,0,0,0,-88.2,12.92,4.09,0,0,38914,0.323,0.048,0,2.3261,0,95062,95062,0,0,24,0,0,61657491,0.0479,0,2.3221,0,2.616,148.104,3.4,10.89,7.67,196.139,196.139,1,-1,0,0,0,0,0,0,0,0,0,-1,0,0,0,0,0,0,0
61657576,50.6,28,0,0,0,-90.7,12.99,4.27,0,0,40140,0.333,0.0481,0,2.3296,0,95319,95319,0,0,24,0,0,61657531,0.048,0,2.3261,0,2.659,150.566,5.3,16.36,8.053,196.727,196.727,1,-1,0,0,0,0,0,0,0,0,0,-1,0,0,0,0,0,0,0
61657625,50.2,27.7,0,0,0,-90.4,12.7,4.26,0,0,41160,0.338,0.0481,0,2.3325,0,95528,95528,0,0,24,0,0,61657576,0.0481,0,2.3296,0,2.7,152.874,4.78,14.36,8.306,197.261,197.261,1,-1,0,0,0,0,0,0,0,0,0,-1,0,0,0,0,0,0,0
61657655,49.2,28,0,0,0,-90.6,12.89,4.38,0,0,41405,0.342,0.0482,0,2.3344,0,95655,95655,0,0,24,0,0,61657625,0.0481,0,2.3325,0,2.707,153.259,4.38,12.95,8.518,197.693,197.693,1,-1,0,0,0,0,0,0,0,0,0,-1,0,0,0,0,0,0,0
61657702,49,27.6,0,0,0,-90,13.26,4.57,0,0,41961,0.348,0.0482,0,2.3375,0,95865,95865,0,0,24,0,0,61657655,0.0482,0,2.3344,0,2.654,150.259,4.98,14.55,8.568,197.954,197.954,1,-1,0,0,0,0,0,0,0,0,0,-1,0,0,0,0,0,0,0
61657734,49.6,27.7,0,0,0,-89.5,12.93,4.5,0,0,42569,0.349,0.0483,0,2.3394,0,96002,96002,0,0,24,0,0,61657702,0.0482,0,2.3375,0,2.633,149.066,4.34,12.48,8.683,198.391,198.391,1,-1,0,0,0,0,0,0,0,0,0,-1,0,0,0,0,0,0,0
61657776,50.2,27.8,0,0,0,-89.3,12.7,4.44,0,0,42832,0.351,0.0483,0,2.3418,0,96192,96192,0,0,24,0,0,61657735,0.0483,0,2.3394,0,2.651,150.105,3.85,11.01,8.809,198.672,198.672,1,-1,0,0,0,0,0,0,0,0,0,-1,0,0,0,0,0,0,0
61657829,49.7,27.6,0,0,0,-87.6,13.04,4.6,0,0,43089,0.353,0.0483,0,2.3437,0,96311,96311,0,0,24,0,0,61657776,0.0483,0,2.3418,0,2.691,152.374,4.2,11.97,8.864,199.067,199.067,1,-1,0,0,0,0,0,0,0,0,0,-1,0,0,0,0,0,0,0
61657861,48.9,28,0,0,0,-88.6,12.9,4.57,0,0,43283,0.355,0.0484,0,2.3469,0,96572,96572,0,0,24,0,0,61657829,0.0483,0,2.3437,0,2.65,150.066,5.42,15.33,8.917,199.314,199.314,1,-1,0,0,0,0,0,0,0,0,0,-1,0,0,0,0,0,0,0
61657913,48.5,27.8,0,0,0,-89.5,13.14,4.7,0,0,43690,0.359,0.0485,0,2.3508,0,96818,96818,0,0,24,0,0,61657861,0.0484,0,2.3469,0,2.687,152.143,4.35,12.22,8.957,199.854,199.854,1,-1,0,0,0,0,0,0,0,0,0,-1,0,0,0,0,0,0,0
61657967,50.2,27.6,0,0,0,-88.8,13.29,4.79,0,0,43983,0.359,0.0485,0,2.3522,0,96944,96944,0,0,24,0,0,61657914,0.0485,0,2.3508,0,2.623,148.489,4.94,13.76,9.041,200.361,200.361,1,-1,0,0,0,0,0,0,0,0,0,-1,0,0,0,0,0,0,0
61658016,49.9,27.6,0,0,0,-87.6,13.29,4.81,0,0,44554,0.365,0.0486,0,2.3575,0,97285,97285,0,0,24,0,0,61657967,0.0485,0,2.3522,0,2.628,148.797,5.12,14.22,9.102,200.623,200.623,1,-1,0,0,0,0,0,0,0,0,0,-1,0,0,0,0,0,0,0
61658043,49.4,27.7,0,0,0,-88.1,13.32,4.85,0,0,44569,0.364,0.0486,0,2.3588,0,97405,97405,0,0,24,0,0,61658016,0.0486,0,2.3575,0,2.671,151.259,4.79,13.12,9.22,201.329,201.329,1,-1,0,0,0,0,0,0,0,0,0,-1,0,0,0,0,0,0,0
61658092,48.8,28,0,0,0,-88.6,13.56,4.96,0,0,44452,0.367,0.0487,0,2.3608,0,97527,97527,0,0,24,0,0,61658043,0.0486,0,2.3588,0,2.667,150.989,4.6,12.63,9.223,201.578,201.578,1,-1,0,0,0,0,0,0,0,0,0,-1,0,0,0,0,0,0,0
61658129,49.6,28.1,0,0,0,-88.9,13.34,4.9,0,0,44770,0.369,0.0488,0,2.365,0,97803,97803,0,0,24,0,0,61658092,0.0487,0,2.3608,0,2.617,148.181,4.83,13.13,9.199,201.83,201.83,1,-1,0,0,0,0,0,0,0,0,0,-1,0,0,0,0,0,0,0
61658181,49.7,27.8,0,0,0,-89.1,13.32,4.91,0,0,44833,0.369,0.0488,0,2.3683,0,98055,98055,0,0,24,0,0,61658129,0.0488,0,2.365,0,2.661,150.682,4.57,12.4,9.265,202.401,202.401,1,-1,0,0,0,0,0,0,0,0,0,-1,0,0,0,0,0,0,0
61658216,48.8,28,0,0,0,-89.4,13.27,4.9,0,0,45112,0.37,0.0489,0,2.369,0,98115,98115,0,0,24,0,0,61658181,0.0488,0,2.3683,0,2.669,151.105,4.63,12.54,9.278,202.923,202.923,1,-1,0,0,0,0,0,0,0,0,0,-1,0,0,0,0,0,0,0
61658264,49,27.9,0,0,0,-89.5,13.36,4.95,0,0,45197,0.368,0.049,0,2.3738,0,98447,98447,0,0,24,0,0,61658216,0.0489,0,2.369,0,2.627,148.72,4.32,11.63,9.335,203.047,203.047,1,-1,0,0,0,0,0,0,0,0,0,-1,0,0,0,0,0,0,0
61658313,50.2,27.7,0,0,0,-89.4,12.73,4.69,0,0,45317,0.368,0.049,0,2.3758,0,98564,98564,0,0,24,0,0,61658264,0.049,0,2.3738,0,2.686,152.067,4.91,13.32,9.353,203.734,203.734,1,-1,0,0,0,0,0,0,0,0,0,-1,0,0,0,0,0,0,0
61658344,50,28,0,0,0,-90.5,13.3,4.92,0,0,45116,0.371,0.0491,0,2.3791,0,98819,98819,0,0,24,0,0,61658313,0.049,0,2.3758,0,2.708,153.336,4.36,11.83,9.378,203.976,203.976,1,-1,0,0,0,0,0,0,0,0,0,-1,0,0,0,0,0,0,0
61658369,48.8,28,0,0,0,-90.1,13.3,4.92,0,0,45232,0.37,0.0491,0,2.3812,0,98932,98932,0,0,24,0,0,61658344,0.0491,0,2.3791,0,2.694,152.528,4.4,11.87,9.336,204.502,204.502,1,-1,0,0,0,0,0,0,0,0,0,-1,0,0,0,0,0,0,0
61658409,48.8,28.1,0,0,0,-90.8,13.32,4.94,0,0,45508,0.371,0.0492,0,2.3839,0,99133,99133,0,0,24,0,0,61658369,0.0491,0,2.3812,0,2.665,150.912,5.48,14.79,9.36,204.738,204.738,1,-1,0,0,0,0,0,0,0,0,0,-1,0,0,0,0,0,0,0
61658451,50.4,28.1,0,0,0,-91,13.31,4.95,0,0,45275,0.37,0.0492,0,2.3853,0,99246,99246,0,0,24,0,0,61658410,0.0492,0,2.3839,0,2.612,147.912,4.55,12.23,9.417,205.154,205.154,1,-1,0,0,0,0,0,0,0,0,0,-1,0,0,0,0,0,0,0
61658515,49.1,27.8,0,0,0,-91.6,13.61,5.08,0,0,45714,0.374,0.0493,0,2.3909,0,99634,99634,0,0,24,0,0,61658451,0.0492,0,2.3853,0,2.701,152.951,4.52,12.16,9.369,205.387,205.387,1,-1,0,0,0,0,0,0,0,0,0,-1,0,0,0,0,0,0,0
61658559,49.2,27.9,0,0,0,-91.6,13.45,5.03,0,0,45634,0.374,0.0493,0,2.393,0,99765,99765,0,0,24,0,0,61658516,0.0493,0,2.3909,0,2.631,148.951,5.38,14.35,9.46,206.19,206.19,1,-1,0,0,0,0,0,0,0,0,0,-1,0,0,0,0,0,0,0
61658593,50.3,28.3,0,0,0,-92.3,13.35,4.99,0,0,45701,0.375,0.0494,0,2.3951,0,99914,99914,0,0,24,0,0,61658559,0.0493,0,2.393,0,2.61,147.758,4.45,11.92,9.443,206.461,206.461,1,-1,0,0,0,0,0,0,0,0,0,-1,0,0,0,0,0,0,0
61658620,49.7,28,0,0,0,-92.8,13.29,4.98,0,0,45615,0.373,0.0494,0,2.3972,0,100058,100058,0,0,24,0,0,61658593,0.0494,0,2.3951,0,2.671,151.22,4.03,10.73,9.457,206.77,206.77,1,-1,0,0,0,0,0,0,0,0,0,-1,0,0,0,0,0,0,0
61658659,49.8,27.9,0,0,0,-92.6,13.32,4.98,0,0,45679,0.374,0.0495,0,2.4012,0,100322,100322,0,0,24,0,0,61658620,0.0494,0,2.3972,0,2.638,149.374,4.95,13.23,9.439,207.068,207.068,1,-1,0,0,0,0,0,0,0,0,0,-1,0,0,0,0,0,0,0
61658685,49.6,27.7,0,0,0,-90.8,13.31,4.97,0,0,45516,0.373,0.0495,0,2.4026,0,100425,100425,0,0,24,0,0,61658659,0.0495,0,2.4012,0,2.667,151.028,4.99,13.31,9.453,207.614,207.614,1,-1,0,0,0,0,0,0,0,0,0,-1,0,0,0,0,0,0,0
61658726,49.2,27.8,0,0,0,-90.7,13.75,5.16,0,0,45906,0.375,0.0496,0,2.4055,0,100643,100643,0,0,24,0,0,61658685,0.0495,0,2.4026,0,2.646,149.835,5.94,15.97,9.419,207.827,207.827,1,-1,0,0,0,0,0,0,0,0,0,-1,0,0,0,0,0,0,0
61658753,49.6,28.1,0,0,0,-89.6,13.36,5,0,0,45829,0.373,0.0496,0,2.4076,0,100761,100761,0,0,24,0,0,61658750,0.0496,0,2.4055,0,2.685,152.028,4.76,11.54,9.5,208.278,208.278,1,-1,0,0,0,0,0,0,0,0,0,-1,0,0,0,0,0,0,0
61658798,48.9,27.8,0,0,0,-89.7,13.31,4.98,0,0,45637,0.375,0.0497,0,2.4103,0,100983,100983,0,0,24,0,0,61658750,0.0496,0,2.4055,0,2.685,152.028,4.76,11.54,9.5,208.278,208.278,1,-1,0,0,0,0,0,0,0,0,0,-1,0,0,0,0,0,0,0
61658850,49.4,27.9,0,0,0,-88.1,13.13,4.91,0,0,45873,0.373,0.0498,0,2.4144,0,101234,101234,0,0,24,0,0,61658798,0.0497,0,2.4103,0,2.621,148.412,5.13,13.67,9.444,208.98,208.98,1,-1,0,0,0,0,0,0,0,0,0,-1,0,0,0,0,0,0,0
61658912,48.6,27.9,0,0,0,-89.2,13.33,4.98,0,0,45597,0.373,0.0498,0,2.4165,0,101409,101409,0,0,24,0,0,61658850,0.0498,0,2.4144,0,2.652,150.182,5.01,13.4,9.493,209.501,209.501,1,-1,0,0,0,0,0,0,0,0,0,-1,0,0,0,0,0,0,0
61658945,49.7,28,0,0,0,-90.4,13.31,4.98,0,0,45747,0.374,0.0499,0,2.4207,0,101677,101677,0,0,24,0,0,61658912,0.0498,0,2.4165,0,2.695,152.567,5.33,14.26,9.436,209.864,209.864,1,-1,0,0,0,0,0,0,0,0,0,-1,0,0,0,0,0,0,0
61658970,50,28,0,0,0,-90.7,13.3,4.98,0,0,45689,0.375,0.0499,0,2.422,0,101795,101795,0,0,24,0,0,61658945,0.0499,0,2.4207,0,2.675,151.451,5.11,13.65,9.467,210.418,210.418,1,-1,0,0,0,0,0,0,0,0,0,-1,0,0,0,0,0,0,0
61659010,49.7,28.3,0,0,0,-92.2,14.18,5.35,0,0,46027,0.384,0.05,0,2.4249,0,101996,101996,0,0,24,0,0,61658970,0.0499,0,2.422,0,2.682,151.874,4.57,12.18,9.455,210.662,210.662,1,-1,0,0,0,0,0,0,0,0,0,-1,0,0,0,0,0,0,0
61659051,50.6,28.2,0,0,0,-92.9,17.84,6.95,0,0,46271,0.397,0.05,0,2.4276,0,102110,102110,0,0,24,0,0,61659011,0.05,0,2.4249,0,2.631,148.989,5.53,14.44,9.525,211.078,211.078,1,-1,0,0,0,0,0,0,0,0,0,-1,0,0,0,0,0,0,0
61659094,48.4,27.3,0,0,0,-85.2,23.66,10.12,0,0,49706,0.456,0.0502,0,2.4357,0,102415,102416,0,0,24,0,0,61659051,0.05,0,2.4276,0,2.635,149.22,7.67,19.25,9.575,211.312,211.312,1,-1,0,0,0,0,0,0,0,0,0,-1,0,0,0,0,0,0,0
61659132,48.1,27.2,0,0,0,-80.1,28.2,13.23,0,0,52907,0.483,0.0503,0,2.4409,0,102610,102610,0,0,24,0,0,61659094,0.0502,0,2.4357,0,2.652,150.143,13.51,29.59,10.286,211.946,211.946,1,-1,0,0,0,0,0,0,0,0,0,-1,0,0,0,0,0,0,0
61659182,48.8,27.2,0,0,0,-74.6,29.19,14.57,0,0,56921,0.513,0.0505,0,2.4506,0,102912,102912,0,0,24,0,0,61659132,0.0503,0,2.4409,0,2.622,148.451,13.56,28.07,10.949,212.349,212.349,1,-1,0,0,0,0,0,0,0,0,0,-1,0,0,0,0,0,0,0
61659225,48.2,27,0,0,0,-70.4,29.29,15.35,0,0,59499,0.534,0.0507,0,2.4609,0,103179,103179,0,0,24,0,0,61659182,0.0505,0,2.4526,0,2.652,150.143,14.58,28.34,11.779,212.974,212.974,1,-1,0,0,0,0,0,0,0,0,0,-1,0,0,0,0,0,0,0
61659253,48.5,27.2,0,0,0,-68.7,29.84,16.12,0,0,60749,0.544,0.0508,0,2.4652,0,103343,103343,0,0,24,0,0,61659225,0.0507,0,2.4609,0,2.635,149.22,15.01,28.08,12.313,213.529,213.529,1,-1,0,0,0,0,0,0,0,0,0,-1,0,0,0,0,0,0,0
61659299,48.2,27.1,0,0,0,-65.8,29.66,16.44,0,0,62888,0.561,0.051,0,2.4762,0,103655,103655,0,0,24,0,0,61659253,0.0508,0,2.4652,0,2.643,149.643,17.65,32.33,12.571,213.868,213.868,1,-1,0,0,0,0,0,0,0,0,0,-1,0,0,0,0,0,0,0
61659350,48.4,27.1,0,0,0,-64.2,29.6,16.84,0,0,64770,0.576,0.0513,0,2.4874,0,104000,104000,0,0,24,0,0,61659299,0.051,0,2.4762,0,2.608,147.643,19.18,34.17,13.014,214.514,214.514,1,-1,0,0,0,0,0,0,0,0,0,-1,0,0,0,0,0,0,0
61659413,48.1,27.2,0,0,0,-63.6,29.97,17.42,0,0,66073,0.585,0.0515,0,2.4968,0,104257,104257,0,0,24,0,0,61659350,0.0513,0,2.4874,0,2.604,147.45,15.51,26.82,13.403,215.226,215.226,1,-1,0,0,0,0,0,0,0,0,0,-1,0,0,0,0,0,0,0
61659447,48,27.2,0,0,0,-62.5,30.39,18,0,0,67443,0.596,0.0518,0,2.5113,0,104657,104657,0,0,24,0,0,61659413,0.0515,0,2.4968,0,2.608,147.681,15.94,27.21,13.673,215.757,215.757,1,-1,0,0,0,0,0,0,0,0,0,-1,0,0,0,0,0,0,0
61659503,48.4,27.2,0,0,0,-62.4,30.28,18.17,0,0,67998,0.602,0.0519,0,2.5187,0,104907,104907,0,0,24,0,0,61659448,0.0518,0,2.5113,0,2.602,147.335,19.85,33.25,13.957,216.585,216.585,1,-1,0,0,0,0,0,0,0,0,0,-1,0,0,0,0,0,0,0
61659549,48.1,27.2,0,0,0,-62.2,30.62,18.6,0,0,69154,0.613,0.0523,0,2.5361,0,105393,105393,0,0,24,0,0,61659503,0.0519,0,2.5187,0,2.615,148.066,17.71,29.41,14.071,217.105,217.105,1,-1,0,0,0,0,0,0,0,0,0,-1,0,0,0,0,0,0,0
61659595,48.2,27.2,0,0,0,-62.2,30.64,18.78,0,0,69402,0.614,0.0524,0,2.5411,0,105562,105562,0,0,24,0,0,61659549,0.0523,0,2.5361,0,2.678,151.605,17.3,28.21,14.311,218.108,218.108,1,-1,0,0,0,0,0,0,0,0,0,-1,0,0,0,0,0,0,0
61659628,48.3,27.3,0,0,0,-63,30.21,18.57,0,0,69605,0.615,0.0527,0,2.5561,0,105955,105955,0,0,24,0,0,61659595,0.0524,0,2.5411,0,2.602,147.335,17.86,29.07,14.362,218.46,218.46,1,-1,0,0,0,0,0,0,0,0,0,-1,0,0,0,0,0,0,0
61659661,48.4,27.3,0,0,0,-62.6,30.07,18.52,0,0,69869,0.616,0.0528,0,2.5636,0,106191,106191,0,0,24,0,0,61659628,0.0527,0,2.5561,0,2.693,152.451,16.74,27.15,14.404,219.273,219.273,1,-1,0,0,0,0,0,0,0,0,0,-1,0,0,0,0,0,0,0
61659692,48.4,27.4,0,0,0,-63.4,30.11,18.58,0,0,69875,0.616,0.053,0,2.5711,0,106427,106427,0,0,24,0,0,61659661,0.0528,0,2.5636,0,2.626,148.681,18,29.21,14.459,219.762,219.762,1,-1,0,0,0,0,0,0,0,0,0,-1,0,0,0,0,0,0,0
61659727,48.2,27.4,0,0,0,-64.2,28.76,17.68,0,0,70071,0.605,0.0532,0,2.5807,0,106680,106680,0,0,24,0,0,61659692,0.053,0,2.5711,0,2.604,147.45,18.83,30.5,14.46,220.25,220.25,1,-1,0,0,0,0,0,0,0,0,0,-1,0,0,0,0,0,0,0
61659786,48.6,27.3,0,0,0,-63.2,23.27,13.77,0,0,69108,0.571,0.0533,0,2.5864,0,106930,106930,0,0,24,0,0,61659727,0.0532,0,2.5807,0,2.614,148.027,16.49,27.29,14.501,220.774,220.774,1,-1,0,0,0,0,0,0,0,0,0,-1,0,0,0,0,0,0,0
61659821,49.1,27.4,0,0,0,-62.6,13.78,7.43,0,0,64405,0.512,0.0534,0,2.5927,0,107337,107337,0,0,24,0,0,61659786,0.0533,0,2.5864,0,2.642,149.566,9.71,17,14.301,221.289,221.289,1,-1,0,0,0,0,0,0,0,0,0,-1,0,0,0,0,0,0,0
61659900,49,27.6,0,0,0,-65.6,11.23,5.54,0,0,59188,0.475,0.0536,0,2.5987,0,107845,107845,0,0,24,0,0,61659821,0.0534,0,2.5927,0,2.667,150.989,4.72,9.22,13.328,222.131,222.131,1,-1,0,0,0,0,0,0,0,0,0,-1,0,0,0,0,0,0,0
61659951,49.6,27.6,0,0,0,-66.9,10.8,5.05,0,0,56706,0.455,0.0536,0,2.6022,0,108146,108146,0,0,24,0,0,61659900,0.0536,0,2.5987,0,2.664,150.836,4.87,10.23,12.248,223.183,223.183,1,-1,0,0,0,0,0,0,0,0,0,-1,0,0,0,0,0,0,0
61660004,50.5,27.6,0,0,0,-67.7,8.1,3.6,0,0,55049,0.427,0.0537,0,2.6037,0,108317,108317,0,0,24,0,0,61659951,0.0536,0,2.6022,0,2.624,148.566,4.24,8.79,11.735,223.806,223.806,1,-1,0,0,0,0,0,0,0,0,0,-1,0,0,0,0,0,0,0
61660038,50.8,28.4,0,0,0,-76.7,2.41,0.98,0,0,50426,0.355,0.0537,0,2.6047,0,108623,108623,0,0,24,0,0,61660005,0.0537,0,2.6037,0,2.635,149.22,5.35,12.55,11.392,224.159,224.159,1,-1,0,0,0,0,0,0,0,0,0,-1,0,0,0,0,0,0,0
61660079,49.1,28.3,0,0,0,-78.9,-0.04,-0.01,0,0,46422,0.327,0.0537,0,2.6047,0,108833,108833,0,0,24,0,0,61660038,0.0537,0,2.6047,0,2.699,152.836,-0.4,-1.13,10.435,224.795,224.795,1,-1,0,0,0,0,0,0,0,0,0,-1,0,0,0,0,0,0,0
61660130,49.2,28.9,0,0,0,-82,0.07,0.02,0,0,44195,0.32,0.0537,0,2.6047,0,108950,108950,0,0,24,0,0,61660086,0.0537,0,2.6047,0,2.654,150.297,0.17,0.52,9.606,225.227,225.227,1,-1,0,0,0,0,0,0,0,0,0,-1,0,0,0,0,0,0,0
61660161,50.1,28.8,0,0,0,-84.1,-0.03,0,0,0,40101,0.28,0.0537,0,2.6047,0,109190,109190,0,0,24,0,0,61660130,0.0537,0,2.6047,0,2.65,150.028,0.15,0.47,9.146,225.469,225.469,1,-1,0,0,0,0,0,0,0,0,0,-1,0,0,0,0,0,0,0
61660195,49.1,28.4,0,0,0,-83.9,0.1,0.03,0,0,37765,0.269,0.0537,0,2.6047,0,109329,109329,0,0,24,0,0,61660161,0.0537,0,2.6047,0,2.703,153.028,-0.08,-0.29,8.298,225.966,225.966,1,-1,0,0,0,0,0,0,0,0,0,-1,0,0,0,0,0,0,0
61660244,50.8,27.9,0,0,0,-80.8,-0.05,-0.01,0,0,35752,0.254,0.0537,0,2.6048,0,109455,109455,0,0,24,0,0,61660195,0.0537,0,2.6047,0,2.71,153.413,-0.17,-0.63,7.815,226.254,226.254,1,-1,0,0,0,0,0,0,0,0,0,-1,0,0,0,0,0,0,0
61660278,49.7,28.5,0,0,0,-82,-0.01,0,0,0,34036,0.238,0.0537,0,2.6048,0,109570,109570,0,0,24,0,0,61660244,0.0537,0,2.6048,0,2.705,153.144,-0.03,-0.11,7.398,226.515,226.515,1,-1,0,0,0,0,0,0,0,0,0,-1,0,0,0,0,0,0,0
61660307,48.9,28.7,0,0,0,-83.1,0.02,0,0,0,32541,0.229,0.0537,0,2.6048,0,109677,109677,0,0,24,0,0,61660278,0.0537,0,2.6048,0,2.649,149.989,0.07,0.29,7.043,226.753,226.753,1,-1,0,0,0,0,0,0,0,0,0,-1,0,0,0,0,0,0,0
61660344,48.9,28.6,0,0,0,-83.5,-0.05,-0.01,0,0,31125,0.218,0.0537,0,2.6048,0,109779,109779,0,0,24,0,0,61660307,0.0537,0,2.6048,0,2.653,150.22,-0.03,-0.13,6.734,226.974,226.974,1,-1,0,0,0,0,0,0,0,0,0,-1,0,0,0,0,0,0,0
61660372,49.2,28.4,0,0,0,-82.3,0.05,0.01,0,0,29049,0.202,0.0537,0,2.6048,0,109928,109928,0,0,24,0,0,61660344,0.0537,0,2.6048,0,2.652,150.182,-0.21,-0.98,6.441,227.185,227.185,1,-1,0,0,0,0,0,0,0,0,0,-1,0,0,0,0,0,0,0
61660411,49.2,28.8,0,0,0,-85.2,0.03,0,0,0,27539,0.195,0.0537,0,2.6048,0,110048,110048,0,0,24,0,0,61660372,0.0537,0,2.6048,0,2.709,153.374,0.21,1.07,6.011,227.491,227.491,1,-1,0,0,0,0,0,0,0,0,0,-1,0,0,0,0,0,0,0
61660436,49.9,28.3,0,0,0,-85.6,0,0,0,0,26759,0.191,0.0537,0,2.6048,0,110104,110104,0,0,24,0,0,61660431,0.0537,0,2.6048,0,2.678,151.643,0,-0.01,5.699,227.742,227.742,1,-1,0,0,0,0,0,0,0,0,0,-1,0,0,0,0,0,0,0
61660479,50.5,28.6,0,0,0,-85.9,0.02,0,0,0,25187,0.176,0.0537,0,2.6048,0,110231,110231,0,0,24,0,0,61660431,0.0537,0,2.6048,0,2.678,151.643,0,-0.01,5.699,227.742,227.742,1,-1,0,0,0,0,0,0,0,0,0,-1,0,0,0,0,0,0,0
61660521,50.5,28.6,0,0,0,-86.7,0,0,0,0,24442,0.172,0.0537,0,2.6048,0,110298,110298,0,0,24,0,0,61660487,0.0537,0,2.6048,0,2.678,151.605,-0.01,-0.1,5.212,228.12,228.12,1,-1,0,0,0,0,0,0,0,0,0,-1,0,0,0,0,0,0,0
61660561,49.5,28.6,0,0,0,-88.1,0.03,0,0,0,23369,0.164,0.0537,0,2.6048,0,110386,110386,0,0,24,0,0,61660522,0.0537,0,2.6048,0,2.654,150.259,0.02,0.13,5.058,228.259,228.259,1,-1,0,0,0,0,0,0,0,0,0,-1,0,0,0,0,0,0,0
61660589,49.8,28.6,0,0,0,-87.2,-0.14,-0.02,0,0,22500,0.155,0.0537,0,2.6048,0,110460,110460,0,0,24,0,0,61660562,0.0537,0,2.6048,0,2.649,149.989,-0.04,-0.28,4.836,228.441,228.441,1,-1,0,0,0,0,0,0,0,0,0,-1,0,0,0,0,0,0,0
61660629,49.1,28.4,0,0,0,-86.7,0.02,0,0,0,21063,0.143,0.0537,0,2.6048,0,110587,110587,0,0,24,0,0,61660589,0.0537,0,2.6048,0,2.702,152.99,0.03,0.24,4.656,228.592,228.592,1,-1,0,0,0,0,0,0,0,0,0,-1,0,0,0,0,0,0,0
61660654,49.6,28.2,0,0,0,-85.8,0.07,0.01,0,0,20601,0.145,0.0537,0,2.6048,0,110632,110632,0,0,24,0,0,61660629,0.0537,0,2.6048,0,2.674,151.413,0,0,4.359,228.855,228.855,1,-1,0,0,0,0,0,0,0,0,0,-1,0,0,0,0,0,0,0
61660696,49.6,28.7,0,0,0,-88.5,0,0,0,0,19470,0.137,0.0537,0,2.6048,0,110728,110728,0,0,24,0,0,61660654,0.0537,0,2.6048,0,2.693,152.49,0.07,0.54,4.263,228.95,228.95,1,-1,0,0,0,0,0,0,0,0,0,-1,0,0,0,0,0,0,0
61660767,50.8,28.5,0,0,0,-87.3,0.05,0,0,0,18937,0.128,0.0537,0,2.6048,0,110789,110789,0,0,24,0,0,61660696,0.0537,0,2.6048,0,2.689,152.259,-0.28,-2.08,4.029,229.147,229.147,1,-1,0,0,0,0,0,0,0,0,0,-1,0,0,0,0,0,0,0
61660822,49.8,28.4,0,0,0,-82.8,0,0,0,0,17059,0.116,0.0537,0,2.6048,0,110965,110965,0,0,24,0,0,61660767,0.0537,0,2.6048,0,2.701,152.951,0.08,0.66,3.919,229.275,229.275,1,-1,0,0,0,0,0,0,0,0,0,-1,0,0,0,0,0,0,0
61660881,49.7,28.9,0,0,0,-85.2,0.05,0,0,0,16535,0.115,0.0537,0,2.6048,0,111016,111016,0,0,24,0,0,61660822,0.0537,0,2.6048,0,2.697,152.682,-0.04,-0.36,3.53,229.637,229.637,1,-1,0,0,0,0,0,0,0,0,0,-1,0,0,0,0,0,0,0
61660919,49.2,28.6,0,0,0,-86.8,0.06,0,0,0,15602,0.106,0.0537,0,2.6048,0,111128,111128,0,0,24,0,0,61660881,0.0537,0,2.6048,0,2.688,152.182,0.04,0.42,3.422,229.743,229.743,1,-1,0,0,0,0,0,0,0,0,0,-1,0,0,0,0,0,0,0
61660970,49.2,28.3,0,0,0,-85.5,-0.1,-0.01,0,0,15141,0.104,0.0537,0,2.6048,0,111168,111168,0,0,24,0,0,61660919,0.0537,0,2.6048,0,2.726,154.375,-0.14,-1.37,3.228,229.975,229.975,1,-1,0,0,0,0,0,0,0,0,0,-1,0,0,0,0,0,0,0
61661005,49.6,28.4,0,0,0,-88.9,-0.06,0,0,0,14307,0.096,0.0537,0,2.6048,0,111258,111258,0,0,24,0,0,61660970,0.0537,0,2.6048,0,2.66,150.605,0,-0.07,3.133,230.057,230.057,1,-1,0,0,0,0,0,0,0,0,0,-1,0,0,0,0,0,0,0
61661045,49.9,28.7,0,0,0,-88.6,0,0,0,0,14026,0.096,0.0537,0,2.6048,0,111286,111286,0,0,24,0,0,61661006,0.0537,0,2.6048,0,2.692,152.413,-0.01,-0.11,2.96,230.246,230.246,1,-1,0,0,0,0,0,0,0,0,0,-1,0,0,0,0,0,0,0
61661073,49.4,28.4,0,0,0,-86.9,0.04,0,0,0,13454,0.09,0.0537,0,2.6048,0,111354,111354,0,0,24,0,0,61661045,0.0537,0,2.6048,0,2.659,150.566,-0.01,-0.14,2.902,230.304,230.304,1,-1,0,0,0,0,0,0,0,0,0,-1,0,0,0,0,0,0,0
61661112,50.7,28.2,0,0,0,-84,0.06,0,0,0,12921,0.087,0.0537,0,2.6048,0,111412,111412,0,0,24,0,0,61661073,0.0537,0,2.6048,0,2.671,151.259,-0.05,-0.62,2.784,230.444,230.444,1,-1,0,0,0,0,0,0,0,0,0,-1,0,0,0,0,0,0,0
61661137,50.3,28.5,0,0,0,-83.5,0.07,0,0,0,12701,0.083,0.0537,0,2.6048,0,111441,111441,0,0,24,0,0,61661134,0.0537,0,2.6048,0,2.684,151.951,0.03,0.37,2.674,230.562,230.562,1,-1,0,0,0,0,0,0,0,0,0,-1,0,0,0,0,0,0,0
61661180,49,28.2,0,0,0,-80.5,0,0,0,0,12243,0.081,0.0537,0,2.6048,0,111499,111499,0,0,24,0,0,61661134,0.0537,0,2.6048,0,2.684,151.951,0.03,0.37,2.674,230.562,230.562,1,-1,0,0,0,0,0,0,0,0,0,-1,0,0,0,0,0,0,0
61661247,50.4,28.3,0,0,0,-81.7,0,0,0,0,11645,0.074,0.0537,0,2.6048,0,111581,111581,0,0,24,0,0,61661180,0.0537,0,2.6048,0,2.731,154.605,-0.02,-0.29,2.533,230.745,230.745,1,-1,0,0,0,0,0,0,0,0,0,-1,0,0,0,0,0,0,0
61661292,49.2,28.5,0,0,0,-82.5,0.02,0,0,0,11281,0.075,0.0537,0,2.6048,0,111612,111612,0,0,24,0,0,61661247,0.0537,0,2.6048,0,2.722,154.144,-0.02,-0.32,2.41,230.912,230.912,1,-1,0,0,0,0,0,0,0,0,0,-1,0,0,0,0,0,0,0
61661336,50.8,27.9,0,0,0,-78.9,0.01,0,0,0,10668,0.072,0.0537,0,2.6048,0,111684,111684,0,0,24,0,0,61661292,0.0537,0,2.6048,0,2.719,153.951,0,0.1,2.334,230.976,230.976,1,-1,0,0,0,0,0,0,0,0,0,-1,0,0,0,0,0,0,0
61661380,49.5,27.7,0,0,0,-78.8,0,0,0,0,10372,0.068,0.0537,0,2.6048,0,111731,111731,0,0,24,0,0,61661336,0.0537,0,2.6048,0,2.643,149.643,-0.05,-0.7,2.207,231.125,231.125,1,-1,0,0,0,0,0,0,0,0,0,-1,0,0,0,0,0,0,0
61661405,50,28.2,0,0,0,-79.2,0.05,0,0,0,10118,0.064,0.0537,0,2.6048,0,111755,111755,0,0,24,0,0,61661402,0.0537,0,2.6048,0,2.649,149.989,-0.02,-0.42,2.146,231.223,231.223,1,-1,0,0,0,0,0,0,0,0,0,-1,0,0,0,0,0,0,0
61661446,49.7,28,0,0,0,-80.2,0.44,0.03,0,0,9926,0.079,0.0537,0,2.6048,0,111800,111800,0,0,24,0,0,61661402,0.0537,0,2.6048,0,2.649,149.989,-0.02,-0.42,2.146,231.223,231.223,1,-1,0,0,0,0,0,0,0,0,0,-1,0,0,0,0,0,0,0
61661499,48.8,27.8,0,0,0,-78.9,4.25,0.38,0,0,10893,0.095,0.0537,0,2.6049,0,111833,111833,0,0,24,0,0,61661446,0.0537,0,2.6048,0,2.633,149.104,0.36,4.53,2.054,231.365,231.365,1,-1,0,0,0,0,0,0,0,0,0,-1,0,0,0,0,0,0,0
61661552,49.6,28.3,0,0,0,-81.7,8.09,0.9,0,0,14231,0.123,0.0537,0,2.6059,0,111934,111934,0,0,24,0,0,61661499,0.0537,0,2.605,0,2.666,150.951,0.41,4.37,2.254,231.434,231.434,1,-1,0,0,0,0,0,0,0,0,0,-1,0,0,0,0,0,0,0
61661594,49.1,28.5,0,0,0,-83.4,9.05,1.17,0,0,15063,0.13,0.0537,0,2.6062,0,111962,111962,0,0,24,0,0,61661552,0.0537,0,2.6059,0,2.649,149.989,1.34,10.87,2.945,231.645,231.645,1,-1,0,0,0,0,0,0,0,0,0,-1,0,0,0,0,0,0,0
61661628,49.8,28.4,0,0,0,-89.7,9.13,1.31,0,0,17745,0.155,0.0537,0,2.6071,0,112061,112061,0,0,24,0,0,61661595,0.0537,0,2.6062,0,2.64,149.451,1.17,8.91,3.117,231.703,231.703,1,-1,0,0,0,0,0,0,0,0,0,-1,0,0,0,0,0,0,0
61661665,49.2,28,0,0,0,-91.5,10.41,1.68,0,0,19390,0.168,0.0538,0,2.608,0,112135,112135,0,0,24,0,0,61661628,0.0537,0,2.6071,0,2.676,151.528,1.62,10.41,3.672,231.905,231.905,1,-1,0,0,0,0,0,0,0,0,0,-1,0,0,0,0,0,0,0
61661721,49.3,27.8,0,0,0,-89.4,11,1.96,0,0,21890,0.186,0.0538,0,2.6096,0,112262,112262,0,0,24,0,0,61661665,0.0538,0,2.608,0,2.695,152.605,1.97,11.67,4.012,232.059,232.059,1,-1,0,0,0,0,0,0,0,0,0,-1,0,0,0,0,0,0,0
61661754,49.1,27.8,0,0,0,-87,10.83,2.07,0,0,23251,0.196,0.0538,0,2.6104,0,112339,112339,0,0,24,0,0,61661721,0.0538,0,2.6096,0,2.683,151.913,1.93,10.34,4.53,232.321,232.321,1,-1,0,0,0,0,0,0,0,0,0,-1,0,0,0,0,0,0,0
61661796,48.8,27.7,0,0,0,-83.7,10.9,2.19,0,0,24652,0.205,0.0538,0,2.6116,0,112452,112452,0,0,24,0,0,61661754,0.0538,0,2.6104,0,2.684,151.951,2.22,11.27,4.811,232.481,232.481,1,-1,0,0,0,0,0,0,0,0,0,-1,0,0,0,0,0,0,0
61661846,49.4,27.6,0,0,0,-81.7,10.84,2.26,0,0,25579,0.211,0.0539,0,2.6125,0,112514,112514,0,0,24,0,0,61661797,0.0538,0,2.6116,0,2.655,150.335,2.18,10.59,5.101,232.715,232.715,1,-1,0,0,0,0,0,0,0,0,0,-1,0,0,0,0,0,0,0
61661879,49.1,27.5,0,0,0,-77,10.86,2.37,0,0,27296,0.224,0.0539,0,2.6141,0,112672,112672,0,0,24,0,0,61661846,0.0539,0,2.6125,0,2.685,152.028,2.25,10.61,5.293,232.843,232.843,1,-1,0,0,0,0,0,0,0,0,0,-1,0,0,0,0,0,0,0
61661916,49,27.4,0,0,0,-73.3,10.76,2.44,0,0,27999,0.23,0.0539,0,2.6155,0,112779,112779,0,0,24,0,0,61661880,0.0539,0,2.6141,0,2.67,151.182,2.57,11.46,5.648,233.172,233.172,1,-1,0,0,0,0,0,0,0,0,0,-1,0,0,0,0,0,0,0
61661971,48.9,27.4,0,0,0,-71.7,10.71,2.5,0,0,28912,0.238,0.0539,0,2.6165,0,112874,112874,0,0,24,0,0,61661916,0.0539,0,2.6155,0,2.647,149.874,2.41,10.46,5.794,233.391,233.391,1,-1,0,0,0,0,0,0,0,0,0,-1,0,0,0,0,0,0,0
61662004,49.8,28,0,0,0,-74.3,10.87,2.64,0,0,30229,0.251,0.054,0,2.6187,0,113049,113049,0,0,24,0,0,61661971,0.0539,0,2.6165,0,2.644,149.72,2.62,11.01,5.983,233.588,233.588,1,-1,0,0,0,0,0,0,0,0,0,-1,0,0,0,0,0,0,0
61662047,49,28.5,0,0,0,-78.5,11.27,2.89,0,0,31614,0.262,0.054,0,2.6203,0,113195,113195,0,0,24,0,0,61662004,0.054,0,2.6187,0,2.66,150.605,2.32,9.24,6.255,233.95,233.95,1,-1,0,0,0,0,0,0,0,0,0,-1,0,0,0,0,0,0,0
61662089,48.7,28.4,0,0,0,-78.7,11.4,3.03,0,0,32209,0.268,0.054,0,2.6211,0,113277,113277,0,0,24,0,0,61662047,0.054,0,2.6203,0,2.622,148.451,3.23,12.29,6.542,234.254,234.254,1,-1,0,0,0,0,0,0,0,0,0,-1,0,0,0,0,0,0,0
61662131,50.2,28.3,0,0,0,-82.9,10.9,2.99,0,0,33912,0.279,0.0541,0,2.6236,0,113485,113485,0,0,24,0,0,61662089,0.054,0,2.6211,0,2.695,152.605,2.99,11.16,6.665,234.422,234.422,1,-1,0,0,0,0,0,0,0,0,0,-1,0,0,0,0,0,0,0
61662211,49.7,28.4,0,0,0,-85.5,10.87,3.08,0,0,34681,0.285,0.0541,0,2.6253,0,113609,113609,0,0,24,0,0,61662132,0.0541,0,2.6236,0,2.676,151.528,3.05,10.9,7.018,234.852,234.852,1,-1,0,0,0,0,0,0,0,0,0,-1,0,0,0,0,0,0,0
61662256,49.8,28.3,0,0,0,-88,10.94,3.19,0,0,36013,0.296,0.0542,0,2.6279,0,113844,113844,0,0,24,0,0,61662211,0.0541,0,2.6253,0,2.644,149.682,3.59,12.56,7.177,235.109,235.109,1,-1,0,0,0,0,0,0,0,0,0,-1,0,0,0,0,0,0,0
61662288,49.8,28.2,0,0,0,-90,10.91,3.26,0,0,36873,0.302,0.0542,0,2.6302,0,114020,114020,0,0,24,0,0,61662256,0.0542,0,2.6279,0,2.651,150.105,2.72,9.2,7.452,235.595,235.595,1,-1,0,0,0,0,0,0,0,0,0,-1,0,0,0,0,0,0,0
61662330,48.8,28.5,0,0,0,-89.7,11.1,3.4,0,0,37865,0.308,0.0543,0,2.6325,0,114236,114236,0,0,24,0,0,61662288,0.0542,0,2.6302,0,2.685,152.028,3.08,10.23,7.63,235.96,235.96,1,-1,0,0,0,0,0,0,0,0,0,-1,0,0,0,0,0,0,0
61662379,50.1,28.5,0,0,0,-90.2,10.98,3.41,0,0,37912,0.311,0.0543,0,2.6339,0,114336,114336,0,0,24,0,0,61662331,0.0543,0,2.6325,0,2.651,150.105,3.97,12.84,7.836,236.409,236.409,1,-1,0,0,0,0,0,0,0,0,0,-1,0,0,0,0,0,0,0
61662411,49.3,28.7,0,0,0,-92.8,10.95,3.44,0,0,38880,0.315,0.0543,0,2.6363,0,114554,114554,0,0,24,0,0,61662379,0.0543,0,2.6339,0,2.637,149.297,4.17,13.38,7.845,236.614,236.614,1,-1,0,0,0,0,0,0,0,0,0,-1,0,0,0,0,0,0,0
61662440,49.9,28.4,0,0,0,-92.7,11.54,3.68,0,0,38993,0.318,0.0544,0,2.6378,0,114667,114667,0,0,24,0,0,61662411,0.0543,0,2.6363,0,2.63,148.912,3.87,12.27,8.046,237.067,237.067,1,-1,0,0,0,0,0,0,0,0,0,-1,0,0,0,0,0,0,0
61662481,49.1,28.8,0,0,0,-92.7,11.27,3.63,0,0,39743,0.323,0.0544,0,2.6398,0,114847,114847,0,0,24,0,0,61662440,0.0544,0,2.6378,0,2.671,151.22,3.27,10.26,8.069,237.298,237.298,1,-1,0,0,0,0,0,0,0,0,0,-1,0,0,0,0,0,0,0
61662523,48.5,28.5,0,0,0,-92.6,10.99,3.54,0,0,39926,0.324,0.0544,0,2.6408,0,114947,114947,0,0,24,0,0,61662482,0.0544,0,2.6398,0,2.674,151.413,4.27,13.25,8.224,237.673,237.673,1,-1,0,0,0,0,0,0,0,0,0,-1,0,0,0,0,0,0,0
61662564,50.3,28.4,0,0,0,-92.3,10.94,3.55,0,0,39935,0.329,0.0545,0,2.6428,0,115105,115105,0,0,24,0,0,61662523,0.0544,0,2.6408,0,2.624,148.566,4.05,12.45,8.262,237.88,237.88,1,-1,0,0,0,0,0,0,0,0,0,-1,0,0,0,0,0,0,0
61662592,49.3,27.8,0,0,0,-88.9,11.01,3.6,0,0,40178,0.325,0.0545,0,2.6453,0,115300,115300,0,0,24,0,0,61662564,0.0545,0,2.6428,0,2.625,148.643,3.56,10.83,8.264,238.207,238.207,1,-1,0,0,0,0,0,0,0,0,0,-1,0,0,0,0,0,0,0
61662631,49.6,28.4,0,0,0,-88.5,11.02,3.62,0,0,40702,0.331,0.0546,0,2.6472,0,115474,115474,0,0,24,0,0,61662592,0.0545,0,2.6453,0,2.686,152.105,3.67,11.24,8.314,238.611,238.611,1,-1,0,0,0,0,0,0,0,0,0,-1,0,0,0,0,0,0,0
61662656,49.6,28.5,0,0,0,-89.1,11.5,3.82,0,0,40768,0.334,0.0546,0,2.6483,0,115559,115559,0,0,24,0,0,61662631,0.0546,0,2.6472,0,2.629,148.874,3.79,11.42,8.423,238.971,238.971,1,-1,0,0,0,0,0,0,0,0,0,-1,0,0,0,0,0,0,0
61662698,49.1,28.4,0,0,0,-90.8,12.25,4.11,0,0,41211,0.341,0.0546,0,2.6511,0,115760,115760,0,0,24,0,0,61662656,0.0546,0,2.6483,0,2.699,152.797,3.15,9.43,8.436,239.144,239.144,1,-1,0,0,0,0,0,0,0,0,0,-1,0,0,0,0,0,0,0
61662757,50.2,28.4,0,0,0,-90.6,16.61,5.86,0,0,42095,0.356,0.0547,0,2.6535,0,115906,115906,0,0,24,0,0,61662698,0.0546,0,2.6511,0,2.658,150.489,5.15,15.09,8.528,239.562,239.562,1,-1,0,0,0,0,0,0,0,0,0,-1,0,0,0,0,0,0,0
61662791,50.2,28.8,0,0,0,-90.7,17.75,6.54,0,0,44293,0.375,0.0548,0,2.6589,0,116169,116169,0,0,24,0,0,61662757,0.0547,0,2.6535,0,2.688,152.182,6.66,18.7,8.711,239.865,239.865,1,-1,0,0,0,0,0,0,0,0,0,-1,0,0,0,0,0,0,0
61662870,50,28.2,0,0,0,-90.5,17.79,6.85,0,0,46512,0.396,0.0549,0,2.6665,0,116552,116552,0,0,24,0,0,61662791,0.0548,0,2.6589,0,2.684,151.99,6.19,16.47,9.166,240.409,240.409,1,-1,0,0,0,0,0,0,0,0,0,-1,0,0,0,0,0,0,0
61662924,49,28.6,0,0,0,-91.5,18.46,7.34,0,0,47164,0.4,0.055,0,2.6685,0,116652,116652,0,0,24,0,0,61662870,0.0549,0,2.6665,0,2.671,151.259,7.27,18.32,9.625,241.201,241.201,1,-1,0,0,0,0,0,0,0,0,0,-1,0,0,0,0,0,0,0
61662983,48.7,28.2,0,0,0,-90.4,18.69,7.65,0,0,48791,0.422,0.0551,0,2.6749,0,116960,116960,0,0,24,0,0,61662924,0.055,0,2.6685,0,2.684,151.951,6.76,16.84,9.76,241.408,241.408,1,-1,0,0,0,0,0,0,0,0,0,-1,0,0,0,0,0,0,0
61663039,48.7,27.6,0,0,0,-82.3,18.81,8.09,0,0,51087,0.437,0.0553,0,2.6815,0,117287,117287,0,0,24,0,0,61662983,0.0551,0,2.6749,0,2.675,151.451,7.56,17.84,10.097,242.046,242.046,1,-1,0,0,0,0,0,0,0,0,0,-1,0,0,0,0,0,0,0
61663074,48.8,27.6,0,0,0,-77.6,18.35,8.15,0,0,52389,0.45,0.0554,0,2.6881,0,117603,117603,0,0,24,0,0,61663039,0.0553,0,2.6815,0,2.669,151.143,8.75,20.02,10.572,242.72,242.72,1,-1,0,0,0,0,0,0,0,0,0,-1,0,0,0,0,0,0,0
61663138,49.3,27.5,0,0,0,-74.6,18.4,8.35,0,0,53214,0.456,0.0555,0,2.6915,0,117802,117802,0,0,24,0,0,61663074,0.0554,0,2.6881,0,2.678,151.605,7.89,17.55,10.841,243.377,243.377,1,-1,0,0,0,0,0,0,0,0,0,-1,0,0,0,0,0,0,0
61663171,49.6,27.7,0,0,0,-72.6,18.64,8.6,0,0,54558,0.466,0.0556,0,2.6985,0,118147,118147,0,0,24,0,0,61663138,0.0555,0,2.6915,0,2.608,147.643,9.78,21.48,11.012,243.788,243.788,1,-1,0,0,0,0,0,0,0,0,0,-1,0,0,0,0,0,0,0
61663227,49,27.6,0,0,0,-71.8,19.04,8.94,0,0,55005,0.473,0.0557,0,2.7021,0,118330,118330,0,0,24,0,0,61663171,0.0556,0,2.6985,0,2.622,148.451,9.87,21.2,11.29,244.502,244.502,1,-1,0,0,0,0,0,0,0,0,0,-1,0,0,0,0,0,0,0
61663289,49,27.6,0,0,0,-69,18.66,8.84,0,0,56007,0.477,0.0558,0,2.7105,0,118691,118691,0,0,24,0,0,61663227,0.0557,0,2.7021,0,2.696,152.644,8.17,17.29,11.383,244.881,244.881,1,-1,0,0,0,0,0,0,0,0,0,-1,0,0,0,0,0,0,0
61663323,49,27.6,0,0,0,-68.2,18.4,8.79,0,0,56258,0.478,0.056,0,2.7164,0,119030,119030,0,0,24,0,0,61663289,0.0558,0,2.7105,0,2.677,151.566,8.4,17.71,11.59,245.628,245.628,1,-1,0,0,0,0,0,0,0,0,0,-1,0,0,0,0,0,0,0
61663370,48.8,27.6,0,0,0,-67.7,18.18,8.71,0,0,56567,0.483,0.0561,0,2.7223,0,119314,119314,0,0,24,0,0,61663323,0.056,0,2.7164,0,2.676,151.528,7.94,16.6,11.642,246.33,246.33,1,-1,0,0,0,0,0,0,0,0,0,-1,0,0,0,0,0,0,0
61663415,49.4,27.6,0,0,0,-67.1,18.49,8.91,0,0,56859,0.483,0.0562,0,2.7283,0,119584,119584,0,0,24,0,0,61663370,0.0561,0,2.7223,0,2.659,150.566,8.36,17.31,11.706,246.917,246.917,1,-1,0,0,0,0,0,0,0,0,0,-1,0,0,0,0,0,0,0
61663448,48.9,27.6,0,0,0,-66.8,18.54,8.96,0,0,56926,0.484,0.0563,0,2.732,0,119769,119769,0,0,24,0,0,61663415,0.0562,0,2.7283,0,2.681,151.797,9.09,18.86,11.766,247.476,247.476,1,-1,0,0,0,0,0,0,0,0,0,-1,0,0,0,0,0,0,0
61663504,49.2,27.7,0,0,0,-66.6,18.52,8.97,0,0,57029,0.484,0.0564,0,2.7356,0,119995,119995,0,0,24,0,0,61663448,0.0563,0,2.732,0,2.648,149.912,8.12,16.74,11.78,247.859,247.859,1,-1,0,0,0,0,0,0,0,0,0,-1,0,0,0,0,0,0,0
61663553,49.2,27.5,0,0,0,-65.5,18.33,8.9,0,0,57418,0.487,0.0565,0,2.7441,0,120407,120407,0,0,24,0,0,61663504,0.0564,0,2.7356,0,2.697,152.72,9.21,19.01,11.802,248.327,248.327,1,-1,0,0,0,0,0,0,0,0,0,-1,0,0,0,0,0,0,0
61663600,49,27.5,0,0,0,-65,18.31,8.9,0,0,57279,0.485,0.0567,0,2.7502,0,120687,120687,0,0,24,0,0,61663553,0.0565,0,2.7441,0,2.673,151.374,8.36,17.17,11.882,249.179,249.179,1,-1,0,0,0,0,0,0,0,0,0,-1,0,0,0,0,0,0,0
